property_url;broker;district;price;type;city;state;ref;category;area;lat;long;num_bedroom;num_bathroom;num_garage;added_date;sold_date;is_sold;days_on_market;price_per_m2
https://www.pedrogranado.com.br/comprar/maringa/apartamento/padrao/zona-08/05363;Pedro Granado Imóveis;Zona 08;;Padrão;Maringá;PR;5363.0;Apartamento;55.34;-23.44694053457345;-51.91969371006467;2.0;1.0;;2025-04-15;2025-08-07;True;114.0;
https://www.pedrogranado.com.br/comprar/maringa/apartamento/padrao/zona-01/31223;Pedro Granado Imóveis;Zona 01;90000.0;Padrão;Maringá;PR;31223.0;Apartamento;48.4;-23.4209995;-51.9330558;1.0;1.0;;2025-04-15;;False;;1859.504132231405
https://www.pedrogranado.com.br/comprar/maringa/apartamento/padrao/zona-01/35423;Pedro Granado Imóveis;Zona 01;126312.1;Padrão;Maringá;PR;35423.0;Apartamento;66.36;-23.4209995;-51.9330558;1.0;1.0;;2025-04-15;;False;;1903.4373116335144
https://www.pedrogranado.com.br/comprar/maringa/terreno/padrao/jardim-barcelona/82763;Pedro Granado Imóveis;Jardim Barcelona;135000.0;Padrão;Maringá;PR;82763.0;Terreno;300.0;-23.45923920409051;-51.98195022170409;;;;2025-04-15;;False;;450.0
https://www.pedrogranado.com.br/comprar/maringa/terreno/padrao/jardim-novo-paulista/48803;Pedro Granado Imóveis;Jardim Novo Paulista;140000.0;Padrão;Maringá;PR;48803.0;Terreno;200.0;-23.4087808;-51.8652695;;;;2025-04-15;;False;;700.0
https://www.pedrogranado.com.br/comprar/maringa/apartamento/padrao/jardim-guairaca/70253;Pedro Granado Imóveis;Jardim Guairacá;140000.0;Padrão;Maringá;PR;70253.0;Apartamento;37.26;-23.3854125;-51.97216239999999;2.0;1.0;;2025-04-15;;False;;3757.380568974772
https://www.pedrogranado.com.br/comprar/maringa/apartamento/padrao/jardim-itaipu/0089;Pedro Granado Imóveis;Jardim Itaipu;170000.0;Padrão;Maringá;PR;89.0;Apartamento;45.0;-23.4440993;-51.97862700000002;2.0;1.0;;2025-04-15;;False;;3777.777777777778
https://www.pedrogranado.com.br/comprar/maringa/apartamento/kitnet/zona-07/40751;Pedro Granado Imóveis;Zona 07;170000.0;Kitnet;Maringá;PR;40751.0;Apartamento;20.0;-23.4109751;-51.9419312;1.0;1.0;;2025-04-15;2025-08-07;True;114.0;8500.0
https://www.pedrogranado.com.br/comprar/maringa/apartamento/padrao/zona-07/10832;Pedro Granado Imóveis;Zona 07;170000.0;Padrão;Maringá;PR;10832.0;Apartamento;55.3;-23.4103821;-51.9416071;2.0;1.0;;2025-04-15;;False;;3074.1410488245933
https://www.pedrogranado.com.br/comprar/maringa/apartamento/kitnet/chacara-paulista/55691;Pedro Granado Imóveis;Chácara Paulista;179900.0;Kitnet;Maringá;PR;55691.0;Apartamento;21.97;-23.4424789;-51.9227434;1.0;1.0;;2025-04-15;2025-08-07;True;114.0;8188.438780154757
https://www.pedrogranado.com.br/alugar/maringa/comercial/sala-edcond/zona-01/629;Pedro Granado Imóveis;Zona 01;;Sala Edcond;Maringá;PR;629.0;Comercial;54.5;-23.4200617;-51.9388795;;1.0;;2025-04-15;;False;;
https://www.pedrogranado.com.br/comprar/maringa/apartamento/padrao/parque-residencial-patricia/37703;Pedro Granado Imóveis;Parque Residencial Patrícia;180000.0;Padrão;Maringá;PR;37703.0;Apartamento;50.76;-23.4160621;-51.8976481;2.0;1.0;;2025-04-15;2025-08-07;True;114.0;3546.099290780142
https://www.pedrogranado.com.br/comprar/maringa/terreno/padrao/jardim-santa-rosa/30953;Pedro Granado Imóveis;Jardim Santa Rosa;180000.0;Padrão;Maringá;PR;30953.0;Terreno;156.25;-23.453089;-51.95816749999999;;;;2025-04-15;;False;;1152.0
https://www.pedrogranado.com.br/comprar/maringa/apartamento/padrao/novo-horizonte/58961;Pedro Granado Imóveis;Novo Horizonte;190000.0;Padrão;Maringá;PR;58961.0;Apartamento;59.39;-23.4209995;-51.93305580000003;3.0;1.0;;2025-04-15;;False;;3199.1917831284727
https://www.pedrogranado.com.br/comprar/maringa/apartamento/kitnet/jardim-universitario/88532;Pedro Granado Imóveis;Jardim Universitário;190000.0;Kitnet;Maringá;PR;88532.0;Apartamento;30.23;-23.4105297;-51.94729;1.0;1.0;;2025-04-15;2025-08-07;True;114.0;6285.14720476348
https://www.pedrogranado.com.br/comprar/maringa/casasobrado/casa/conjunto-joao-de-barro-itaparica/83153;Pedro Granado Imóveis;Conjunto João De Barro Itaparica;190000.0;Casa;Maringá;PR;83153.0;Casa;327.38;-23.39471279427728;-51.89158346231822;2.0;1.0;;2025-04-15;2025-08-07;True;114.0;580.3653246991264
https://www.pedrogranado.com.br/comprar/maringa/apartamento/padrao/zona-08/23363;Pedro Granado Imóveis;Zona 08;190000.0;Padrão;Maringá;PR;23363.0;Apartamento;54.45;-23.44694053457345;-51.91969371006467;2.0;1.0;;2025-04-15;2025-08-07;True;114.0;3489.4398530762164
https://www.pedrogranado.com.br/comprar/maringa/apartamento/padrao/zona-07/09863;Pedro Granado Imóveis;Zona 07;190000.0;Padrão;Maringá;PR;9863.0;Apartamento;37.83;-23.4096208;-51.9405083;1.0;1.0;1.0;2025-04-15;2025-08-07;True;114.0;5022.468939994714
https://www.pedrogranado.com.br/comprar/maringa/apartamento/padrao/jardim-ipanema/04343;Pedro Granado Imóveis;Jardim Ipanema;199000.0;Padrão;Maringá;PR;4343.0;Apartamento;45.6;-23.4557099;-51.9245815;2.0;1.0;;2025-04-15;2025-08-07;True;114.0;4364.035087719298
https://www.pedrogranado.com.br/comprar/maringa/apartamento/kitnet/jardim-universitario/89663;Pedro Granado Imóveis;Jardim Universitário;200000.0;Kitnet;Maringá;PR;89663.0;Apartamento;53.72;-23.4105297;-51.94729;1.0;1.0;;2025-04-15;;False;;3723.0081906180194
https://www.pedrogranado.com.br/comprar/maringa/apartamento/padrao/zona-01/9122;Pedro Granado Imóveis;Zona 01;210000.0;Padrão;Maringá;PR;9122.0;Apartamento;23.11;-23.419059;-51.93954310000004;1.0;1.0;;2025-04-15;;False;;9086.975335352661
https://www.pedrogranado.com.br/comprar/maringa/apartamento/padrao/zona-01/2333;Pedro Granado Imóveis;Zona 01;210000.0;Padrão;Maringá;PR;2333.0;Apartamento;21.0;-23.419129;-51.9348968;1.0;1.0;1.0;2025-04-15;2025-08-07;True;114.0;10000.0
https://www.pedrogranado.com.br/comprar/maringa/apartamento/padrao/jardim-universitario/3224;Pedro Granado Imóveis;Jardim Universitário;210000.0;Padrão;Maringá;PR;3224.0;Apartamento;21.71;-23.4094169;-51.94299569999998;1.0;1.0;1.0;2025-04-15;;False;;9672.961768770152
https://www.pedrogranado.com.br/comprar/maringa/apartamento/padrao/jardim-maravilha/54572;Pedro Granado Imóveis;Jardim Maravilha;210000.0;Padrão;Maringá;PR;54572.0;Apartamento;60.89;-23.4209995;-51.9330558;2.0;1.0;;2025-04-15;;False;;3448.8421744128755
https://www.pedrogranado.com.br/comprar/maringa/apartamento/padrao/conjunto-habitacional-lea-leal/91703;Pedro Granado Imóveis;Conjunto Habitacional Lea Leal;210000.0;Padrão;Maringá;PR;91703.0;Apartamento;53.94;-23.4156348;-51.89918660000001;3.0;1.0;;2025-04-15;;False;;3893.2146829810904
https://www.pedrogranado.com.br/comprar/maringa/apartamento/padrao/novo-horizonte/10463;Pedro Granado Imóveis;Novo Horizonte;210000.0;Padrão;Maringá;PR;10463.0;Apartamento;55.96;-23.44874072766661;-51.93362716242675;3.0;1.0;;2025-04-15;2025-08-07;True;114.0;3752.6804860614725
https://www.pedrogranado.com.br/comprar/maringa/apartamento/padrao/zona-07/81563;Pedro Granado Imóveis;Zona 07;210000.0;Padrão;Maringá;PR;81563.0;Apartamento;44.42;-23.4091784;-51.9417964;2.0;1.0;;2025-04-15;2025-08-07;True;114.0;4727.600180099054
https://www.pedrogranado.com.br/comprar/maringa/apartamento/padrao/vila-marumby/1802;Pedro Granado Imóveis;Vila Marumby;215000.0;Padrão;Maringá;PR;1802.0;Apartamento;53.23;-23.4383717;-51.92506209999999;2.0;1.0;;2025-04-15;;False;;4039.0757091865494
https://www.pedrogranado.com.br/comprar/maringa/terreno/padrao/jardim-olimpico/05561;Pedro Granado Imóveis;Jardim Olímpico;215000.0;Padrão;Maringá;PR;5561.0;Terreno;300.0;-23.407975;-51.97684779999999;;;;2025-04-15;2025-08-07;True;114.0;716.6666666666666
https://www.pedrogranado.com.br/comprar/maringa/apartamento/kitnet/zona-07/23111;Pedro Granado Imóveis;Zona 07;220000.0;Kitnet;Maringá;PR;23111.0;Apartamento;26.07;-23.4108214;-51.93465230000004;1.0;1.0;;2025-04-15;;False;;8438.818565400843
https://www.pedrogranado.com.br/comprar/maringa/apartamento/padrao/jardim-alvorada/49082;Pedro Granado Imóveis;Jardim Alvorada;220000.0;Padrão;Maringá;PR;49082.0;Apartamento;52.0;-23.39091013662381;-51.90589038709716;2.0;1.0;;2025-04-15;2025-08-07;True;114.0;4230.7692307692305
https://www.pedrogranado.com.br/comprar/maringa/apartamento/kitnet/zona-01/75023;Pedro Granado Imóveis;Zona 01;220000.0;Kitnet;Maringá;PR;75023.0;Apartamento;36.17;-23.4230803;-51.9370062;1.0;1.0;1.0;2025-04-15;;False;;6082.388719933647
https://www.pedrogranado.com.br/comprar/maringa/apartamento/padrao/chacaras-alvorada/39443;Pedro Granado Imóveis;Chacaras Alvorada;220000.0;Padrão;Maringá;PR;39443.0;Apartamento;45.44;-23.39085834491324;-51.90850191517621;2.0;1.0;;2025-04-15;;False;;4841.549295774648
https://www.pedrogranado.com.br/comprar/maringa/apartamento/padrao/zona-03/51662;Pedro Granado Imóveis;Zona 03;221988.54;Padrão;Maringá;PR;51662.0;Apartamento;51.1;-23.424505;-51.9268729;1.0;1.0;1.0;2025-04-15;;False;;4344.19843444227
https://www.pedrogranado.com.br/comprar/maringa/terreno/padrao/jardim-diamante/65462;Pedro Granado Imóveis;Jardim Diamante;225000.0;Padrão;Maringá;PR;65462.0;Terreno;300.43;-23.3728578;-51.938284;;;;2025-04-15;;False;;748.9265386279666
https://www.pedrogranado.com.br/comprar/maringa/terreno/padrao/jardim-paulista/83513;Pedro Granado Imóveis;Jardim Paulista;225000.0;Padrão;Maringá;PR;83513.0;Terreno;300.0;-23.4100449;-51.86884569999999;;;;2025-04-15;2025-08-07;True;114.0;750.0
https://www.pedrogranado.com.br/comprar/maringa/apartamento/padrao/chacaras-aeroporto/78953;Pedro Granado Imóveis;Chácaras Aeroporto;225000.0;Padrão;Maringá;PR;78953.0;Apartamento;44.0;-23.4748336851259;-51.90651027301636;2.0;1.0;;2025-04-15;2025-08-07;True;114.0;5113.636363636364
https://www.pedrogranado.com.br/comprar/maringa/apartamento/padrao/jardim-imperial/41471;Pedro Granado Imóveis;Jardim Imperial;230000.0;Padrão;Maringá;PR;41471.0;Apartamento;45.0;-23.3969496;-51.93278989999999;2.0;1.0;;2025-04-15;;False;;5111.111111111111
https://www.pedrogranado.com.br/comprar/maringa/apartamento/padrao/zona-04/73022;Pedro Granado Imóveis;Zona 04;230000.0;Padrão;Maringá;PR;73022.0;Apartamento;84.0;-23.4238313;-51.9581537;2.0;1.0;;2025-04-15;;False;;2738.095238095238
https://www.pedrogranado.com.br/comprar/maringa/apartamento/padrao/jardim-america/19262;Pedro Granado Imóveis;Jardim América;230000.0;Padrão;Maringá;PR;19262.0;Apartamento;58.0;-23.4275716;-51.8876177;2.0;1.0;;2025-04-15;2025-08-07;True;114.0;3965.5172413793102
https://www.pedrogranado.com.br/comprar/maringa/terreno/padrao/jardim-sao-miguel/89762;Pedro Granado Imóveis;Jardim São Miguel;230000.0;Padrão;Maringá;PR;89762.0;Terreno;305.76;-23.4112229;-51.9727147;;;;2025-04-15;;False;;752.2239665096808
https://www.pedrogranado.com.br/comprar/maringa/casasobrado/casa/jardim-novo-paulista/71933;Pedro Granado Imóveis;Jardim Novo Paulista;230000.0;Casa;Maringá;PR;71933.0;Casa;291.8;-23.4114207;-51.8607243;3.0;1.0;;2025-04-15;2025-08-07;True;114.0;788.2111034955449
https://www.pedrogranado.com.br/comprar/maringa/apartamento/padrao/zona-01/76553;Pedro Granado Imóveis;Zona 01;232442.88;Padrão;Maringá;PR;76553.0;Apartamento;45.13;-23.42295894032863;-51.93463727909851;2.0;1.0;;2025-04-15;;False;;5150.518058940837
https://www.pedrogranado.com.br/comprar/maringa/apartamento/padrao/jardim-aclimacao/9611;Pedro Granado Imóveis;Jardim Aclimacao;235000.0;Padrão;Maringá;PR;9611.0;Apartamento;55.0;-23.4440842;-51.91316310000002;2.0;1.0;;2025-04-15;2025-08-07;True;114.0;4272.727272727273
https://www.pedrogranado.com.br/comprar/maringa/apartamento/padrao/vila-marumby/24671;Pedro Granado Imóveis;Vila Marumby;235000.0;Padrão;Maringá;PR;24671.0;Apartamento;53.25;-23.4383717;-51.92506209999999;2.0;1.0;;2025-04-15;2025-08-07;True;114.0;4413.145539906103
https://www.pedrogranado.com.br/comprar/maringa/terreno/padrao/jardim-universo/09233;Pedro Granado Imóveis;Jardim Universo;235000.0;Padrão;Maringá;PR;9233.0;Terreno;322.8;-23.45712463389219;-51.94112777709965;;;;2025-04-15;;False;;728.004956629492
https://www.pedrogranado.com.br/comprar/maringa/apartamento/padrao/jardim-america/10013;Pedro Granado Imóveis;Jardim América;239000.0;Padrão;Maringá;PR;10013.0;Apartamento;45.86;-23.4279265;-51.8869951;2.0;1.0;;2025-04-15;2025-08-07;True;114.0;5211.513301351941
https://www.pedrogranado.com.br/comprar/maringa/terreno/padrao/conjunto-habitacional-requiao/35543;Pedro Granado Imóveis;Conjunto Habitacional Requião;240000.0;Padrão;Maringá;PR;35543.0;Terreno;360.77;-23.40784048574457;-51.86872356233084;;;;2025-04-15;;False;;665.2437841283921
https://www.pedrogranado.com.br/comprar/maringa/terreno/padrao/jardim-novo-paulista/01463;Pedro Granado Imóveis;Jardim Novo Paulista;240000.0;Padrão;Maringá;PR;1463.0;Terreno;386.52;-23.410464;-51.8659813;;;;2025-04-15;;False;;620.9251785159888
https://www.pedrogranado.com.br/comprar/maringa/apartamento/padrao/ebenezer/13133;Pedro Granado Imóveis;Ebenezer;245000.0;Padrão;Maringá;PR;13133.0;Apartamento;50.48;-23.39141726206456;-51.90608350614623;2.0;1.0;;2025-04-15;;False;;4853.407290015848
https://www.pedrogranado.com.br/comprar/maringa/terreno/padrao/jardim-olimpico/04412;Pedro Granado Imóveis;Jardim Olímpico;250000.0;Padrão;Maringá;PR;4412.0;Terreno;356.4;-23.4074681;-51.9797215;;;;2025-04-15;;False;;701.4590347923681
https://www.pedrogranado.com.br/comprar/maringa/terreno/condominio/loteamento-sumare/03992;Pedro Granado Imóveis;Loteamento Sumaré;250000.0;Condomínio;Maringá;PR;3992.0;Terreno;500.0;-23.36911418173087;-51.90363586872559;;;;2025-04-15;;False;;500.0
https://www.pedrogranado.com.br/comprar/maringa/terreno/padrao/jardim-paris/55613;Pedro Granado Imóveis;Jardim Paris;250000.0;Padrão;Maringá;PR;55613.0;Terreno;150.0;-23.38464032908278;-51.95290027619629;;;;2025-04-15;;False;;1666.6666666666667
https://www.pedrogranado.com.br/comprar/maringa/apartamento/padrao/vila-marumby/78023;Pedro Granado Imóveis;Vila Marumby;250000.0;Padrão;Maringá;PR;78023.0;Apartamento;80.56;-23.4428609;-51.9262951;3.0;2.0;1.0;2025-04-15;;False;;3103.2770605759683
https://www.pedrogranado.com.br/comprar/maringa/terreno/padrao/jardim-aurora/30443;Pedro Granado Imóveis;Jardim Aurora;250000.0;Padrão;Maringá;PR;30443.0;Terreno;375.0;-23.4156954;-51.9726055;;;;2025-04-15;;False;;666.6666666666666
https://www.pedrogranado.com.br/comprar/maringa/terreno/comercial/vila-santa-izabel/52553;Pedro Granado Imóveis;Vila Santa Izabel;250000.0;Comercial;Maringá;PR;52553.0;Terreno;307.81;-23.4061193;-51.96389629999999;;;;2025-04-15;;False;;812.1893375783762
https://www.pedrogranado.com.br/comprar/maringa/terreno/padrao/bom-jardim/12563;Pedro Granado Imóveis;Bom Jardim;250000.0;Padrão;Maringá;PR;12563.0;Terreno;201.0;-23.4112568;-51.8862664;;;;2025-04-15;;False;;1243.7810945273632
https://www.pedrogranado.com.br/comprar/maringa/casasobrado/casa/jardim-paris/5639;Pedro Granado Imóveis;Jardim Paris;255000.0;Casa;Maringá;PR;5639.0;Casa;65.7;-23.3851949;-51.94889839999996;1.0;1.0;1.0;2025-04-15;;False;;3881.2785388127854
https://www.pedrogranado.com.br/comprar/maringa/apartamento/padrao/zona-07/72353;Pedro Granado Imóveis;Zona 07;255000.0;Padrão;Maringá;PR;72353.0;Apartamento;26.45;-23.4108352;-51.9347743;1.0;1.0;;2025-04-15;;False;;9640.831758034026
https://www.pedrogranado.com.br/comprar/maringa/casasobrado/casa/jardim-paulista-ii/30653;Pedro Granado Imóveis;Jardim Paulista Ii;255000.0;Casa;Maringá;PR;30653.0;Casa;150.57;-23.4130971;-51.86354859999999;2.0;1.0;;2025-04-15;2025-08-07;True;114.0;1693.5644550707314
https://www.pedrogranado.com.br/comprar/maringa/apartamento/padrao/jardim-tabaete/33173;Pedro Granado Imóveis;Jardim Tabaete;259000.0;Padrão;Maringá;PR;33173.0;Apartamento;55.96;-25.08559889706477;-51.767578125;3.0;1.0;;2025-04-15;;False;;4628.305932809149
https://www.pedrogranado.com.br/comprar/maringa/terreno/padrao/parque-das-grevileas-ii-parte/95843;Pedro Granado Imóveis;Parque Das Grevíleas Ii Parte;260000.0;Padrão;Maringá;PR;95843.0;Terreno;300.0;-23.3761195;-51.9340275;;;;2025-04-15;;False;;866.6666666666666
https://www.pedrogranado.com.br/comprar/maringa/comercial/sala/zona-01/99122;Pedro Granado Imóveis;Zona 01;265000.0;Sala;Maringá;PR;99122.0;Comercial;64.1;-23.4211162;-51.9436735;;1.0;;2025-04-15;;False;;4134.165366614665
https://www.pedrogranado.com.br/comprar/maringa/casasobrado/casa/vila-morangueira/67103;Pedro Granado Imóveis;Vila Morangueira;265000.0;Casa;Maringá;PR;67103.0;Casa;237.76;-23.4183028;-51.9021634;2.0;1.0;;2025-04-15;2025-08-07;True;114.0;1114.5693135935398
https://www.pedrogranado.com.br/comprar/maringa/apartamento/padrao/jardim-america/87872;Pedro Granado Imóveis;Jardim América;270000.0;Padrão;Maringá;PR;87872.0;Apartamento;52.0;-23.4275716;-51.8876177;2.0;1.0;;2025-04-15;;False;;5192.307692307692
https://www.pedrogranado.com.br/comprar/maringa/apartamento/padrao/jardim-america/49613;Pedro Granado Imóveis;Jardim América;270000.0;Padrão;Maringá;PR;49613.0;Apartamento;45.86;-23.4279265;-51.8869951;2.0;1.0;;2025-04-15;;False;;5887.483645878761
https://www.pedrogranado.com.br/comprar/maringa/apartamento/padrao/jardim-america/50363;Pedro Granado Imóveis;Jardim América;270000.0;Padrão;Maringá;PR;50363.0;Apartamento;43.46;-23.4261911;-51.8897255;2.0;1.0;;2025-04-15;2025-08-07;True;114.0;6212.60929590428
https://www.pedrogranado.com.br/comprar/maringa/terreno/padrao/jardim-paris-vi/37073;Pedro Granado Imóveis;Jardim Paris Vi;270000.0;Padrão;Maringá;PR;37073.0;Terreno;300.0;-23.3806459;-51.9637889;;;;2025-04-15;2025-08-07;True;114.0;900.0
https://www.pedrogranado.com.br/comprar/maringa/apartamento/padrao/jardim-america/74543;Pedro Granado Imóveis;Jardim América;275000.0;Padrão;Maringá;PR;74543.0;Apartamento;45.86;-23.4275669;-51.88761909999999;2.0;1.0;;2025-04-15;2025-08-07;True;114.0;5996.511120802442
https://www.pedrogranado.com.br/comprar/maringa/apartamento/padrao/jardim-america/09653;Pedro Granado Imóveis;Jardim América;275000.0;Padrão;Maringá;PR;9653.0;Apartamento;55.76;-23.4283497;-51.8883972;2.0;1.0;;2025-04-15;2025-08-07;True;114.0;4931.850789096126
https://www.pedrogranado.com.br/comprar/maringa/apartamento/padrao/jardim-novo-horizonte/8468;Pedro Granado Imóveis;Jardim Novo Horizonte;279000.0;Padrão;Maringá;PR;8468.0;Apartamento;65.0;-23.4391026;-51.9363596;2.0;1.0;;2025-04-15;;False;;4292.307692307692
https://www.pedrogranado.com.br/comprar/maringa/apartamento/padrao/jardim-das-estacoes/94763;Pedro Granado Imóveis;Jardim Das Estações;279000.0;Padrão;Maringá;PR;94763.0;Apartamento;49.12;-23.4452043;-51.978668;2.0;1.0;;2025-04-15;2025-08-07;True;114.0;5679.967426710098
https://www.pedrogranado.com.br/comprar/maringa/apartamento/padrao/jardim-itaipu/39632;Pedro Granado Imóveis;Jardim Itaipu;280000.0;Padrão;Maringá;PR;39632.0;Apartamento;49.12;-23.4446968;-51.97869430000003;2.0;1.0;;2025-04-15;2025-08-07;True;114.0;5700.325732899023
https://www.pedrogranado.com.br/comprar/maringa/terreno/padrao/jardim-aurora/87053;Pedro Granado Imóveis;Jardim Aurora;280000.0;Padrão;Maringá;PR;87053.0;Terreno;415.72;-23.41507326323933;-51.97234320000001;;;;2025-04-15;;False;;673.5302607524295
https://www.pedrogranado.com.br/comprar/maringa/casasobrado/casa/conjunto-joao-de-barro-porto-seguro-ii/64253;Pedro Granado Imóveis;Conjunto João De Barro Porto Seguro Ii;280000.0;Casa;Maringá;PR;64253.0;Casa;309.12;-23.45055081273709;-51.89752777790827;2.0;1.0;;2025-04-15;2025-08-07;True;114.0;905.7971014492754
https://www.pedrogranado.com.br/comprar/maringa/apartamento/padrao/jardim-alvorada/85253;Pedro Granado Imóveis;Jardim Alvorada;280000.0;Padrão;Maringá;PR;85253.0;Apartamento;46.0;-23.3874291;-51.9102447;2.0;1.0;;2025-04-15;2025-08-07;True;114.0;6086.95652173913
https://www.pedrogranado.com.br/comprar/maringa/apartamento/padrao/vila-marumby/49553;Pedro Granado Imóveis;Vila Marumby;280000.0;Padrão;Maringá;PR;49553.0;Apartamento;80.56;-23.4428609;-51.9262951;3.0;2.0;1.0;2025-04-15;2025-08-07;True;114.0;3475.670307845084
https://www.pedrogranado.com.br/comprar/maringa/casasobrado/casa/jardim-itaipu/77753;Pedro Granado Imóveis;Jardim Itaipu;280000.0;Casa;Maringá;PR;77753.0;Casa;303.48;-23.45152797219446;-51.97545615158997;4.0;2.0;;2025-04-15;;False;;922.63081586925
https://www.pedrogranado.com.br/comprar/maringa/apartamento/padrao/vila-santo-antonio/64853;Pedro Granado Imóveis;Vila Santo Antônio;280000.0;Padrão;Maringá;PR;64853.0;Apartamento;91.05;-23.4099826;-51.9282961;3.0;2.0;;2025-04-15;;False;;3075.2333882482153
https://www.pedrogranado.com.br/comprar/maringa/apartamento/padrao/vila-vardelina/32753;Pedro Granado Imóveis;Vila Vardelina;283000.0;Padrão;Maringá;PR;32753.0;Apartamento;51.56;-23.40013573137337;-51.96582020182507;2.0;1.0;;2025-04-15;;False;;5488.750969743987
https://www.pedrogranado.com.br/comprar/maringa/apartamento/duplex/vila-marumby/84803;Pedro Granado Imóveis;Vila Marumby;285000.0;Duplex;Maringá;PR;84803.0;Apartamento;109.01;-23.4460858;-51.93061469999998;2.0;3.0;1.0;2025-04-15;;False;;2614.439042289698
https://www.pedrogranado.com.br/comprar/maringa/terreno/padrao/parque-residencial-patricia/22433;Pedro Granado Imóveis;Parque Residencial Patrícia;285000.0;Padrão;Maringá;PR;22433.0;Terreno;391.08;-23.41271480032064;-51.89950645117899;;;;2025-04-15;;False;;728.7511506597116
https://www.pedrogranado.com.br/comprar/maringa/apartamento/padrao/zona-03/49172;Pedro Granado Imóveis;Zona 03;288803.48;Padrão;Maringá;PR;49172.0;Apartamento;53.63;-23.42464205417671;-51.92674724439696;1.0;1.0;;2025-04-15;;False;;5385.110572440797
https://www.pedrogranado.com.br/comprar/maringa/apartamento/padrao/centro/1337;Pedro Granado Imóveis;Centro;290000.0;Padrão;Maringá;PR;1337.0;Apartamento;68.11;-23.4097886;-51.93500849999998;2.0;1.0;;2025-04-15;;False;;4257.818235207752
https://www.pedrogranado.com.br/comprar/maringa/terreno/comercial/jardim-ipanema/19733;Pedro Granado Imóveis;Jardim Ipanema;290000.0;Comercial;Maringá;PR;19733.0;Terreno;288.0;-23.4561983;-51.9242205;;;;2025-04-15;2025-08-07;True;114.0;1006.9444444444445
https://www.pedrogranado.com.br/comprar/maringa/apartamento/padrao/jardim-das-estacoes/60443;Pedro Granado Imóveis;Jardim Das Estações;290000.0;Padrão;Maringá;PR;60443.0;Apartamento;47.72;-23.4461743;-51.9796035;2.0;1.0;;2025-04-15;;False;;6077.116512992457
https://www.pedrogranado.com.br/comprar/maringa/apartamento/padrao/vila-marumby/9425;Pedro Granado Imóveis;Vila Marumby;295000.0;Padrão;Maringá;PR;9425.0;Apartamento;79.8;-23.442991;-51.929532;3.0;2.0;1.0;2025-04-15;2025-08-07;True;114.0;3696.7418546365916
https://www.pedrogranado.com.br/comprar/maringa/casasobrado/casa/jardim-tres-lagoas/04352;Pedro Granado Imóveis;Jardim Três Lagoas;295000.0;Casa;Maringá;PR;4352.0;Casa;72.37;-23.3862106;-51.9733458;2.0;1.0;;2025-04-15;;False;;4076.2746994611025
https://www.pedrogranado.com.br/comprar/maringa/terreno/condominio/condominio-santa-marina/79682;Pedro Granado Imóveis;Condomínio Santa Marina;295000.0;Condomínio;Maringá;PR;79682.0;Terreno;500.0;-23.3645241;-51.94114339999999;;;;2025-04-15;;False;;590.0
https://www.pedrogranado.com.br/comprar/maringa/apartamento/padrao/jardim-tropical/35153;Pedro Granado Imóveis;Jardim Tropical;295000.0;Padrão;Maringá;PR;35153.0;Apartamento;45.33;-23.3960299;-51.9622542;2.0;1.0;;2025-04-15;;False;;6507.8314581954555
https://www.pedrogranado.com.br/comprar/maringa/casasobrado/casa/jardim-paris/65801;Pedro Granado Imóveis;Jardim Paris;299000.0;Casa;Maringá;PR;65801.0;Casa;99.99;-23.3855393;-51.94873639999997;2.0;2.0;1.0;2025-04-15;;False;;2990.2990299029902
https://www.pedrogranado.com.br/comprar/maringa/apartamento/padrao/jardim-das-estacoes/65651;Pedro Granado Imóveis;Jardim Das Estações;299000.0;Padrão;Maringá;PR;65651.0;Apartamento;49.12;-23.4451873;-51.9787305;2.0;1.0;;2025-04-15;;False;;6087.133550488599
https://www.pedrogranado.com.br/comprar/maringa/apartamento/padrao/zona-07/7451;Pedro Granado Imóveis;Zona 07;300000.0;Padrão;Maringá;PR;7451.0;Apartamento;75.0;-23.4141763;-51.93146569999999;1.0;2.0;1.0;2025-04-15;2025-08-07;True;114.0;4000.0
https://www.pedrogranado.com.br/comprar/maringa/apartamento/padrao/vila-bosque/4928;Pedro Granado Imóveis;Vila Bosque;300000.0;Padrão;Maringá;PR;4928.0;Apartamento;53.24;-23.4383717;-51.92506209999999;2.0;1.0;;2025-04-15;;False;;5634.861006761833
https://www.pedrogranado.com.br/comprar/maringa/casasobrado/casa/jardim-sao-silvestre/39053;Pedro Granado Imóveis;Jardim São Silvestre;300000.0;Casa;Maringá;PR;39053.0;Casa;68.85;-23.4549628;-51.9046903;3.0;1.0;;2025-04-15;;False;;4357.2984749455345
https://www.pedrogranado.com.br/comprar/maringa/apartamento/padrao/zona-07/09563;Pedro Granado Imóveis;Zona 07;305000.0;Padrão;Maringá;PR;9563.0;Apartamento;50.0;-23.4127193;-51.9359184;1.0;1.0;1.0;2025-04-15;;False;;6100.0
https://www.pedrogranado.com.br/comprar/maringa/apartamento/padrao/zona-03/00272;Pedro Granado Imóveis;Zona 03;310047.03;Padrão;Maringá;PR;272.0;Apartamento;53.63;-23.42464205417671;-51.92674724439696;1.0;1.0;1.0;2025-04-15;;False;;5781.223755360806
https://www.pedrogranado.com.br/comprar/maringa/casasobrado/casa/conjunto-residencial-paulino-carlos-filho/36653;Pedro Granado Imóveis;Conjunto Residencial Paulino Carlos Filho;319000.0;Casa;Maringá;PR;36653.0;Casa;300.23;-23.3973035;-51.8951049;3.0;2.0;;2025-04-15;;False;;1062.5187356360123
https://www.pedrogranado.com.br/comprar/maringa/apartamento/padrao/zona-03/63881;Pedro Granado Imóveis;Zona 03;320000.0;Padrão;Maringá;PR;63881.0;Apartamento;89.27;-23.425062;-51.9213623;2.0;1.0;;2025-04-15;2025-08-07;True;114.0;3584.630895037527
https://www.pedrogranado.com.br/comprar/maringa/casasobrado/casa/conjunto-residencial-branca-vieira/87062;Pedro Granado Imóveis;Conjunto Residencial Branca Vieira;320000.0;Casa;Maringá;PR;87062.0;Casa;99.97;-23.3992283;-51.9039599;3.0;2.0;1.0;2025-04-15;2025-08-07;True;114.0;3200.960288086426
https://www.pedrogranado.com.br/comprar/maringa/terreno/padrao/jardim-campos/29582;Pedro Granado Imóveis;Jardim Campos;320000.0;Padrão;Maringá;PR;29582.0;Terreno;412.87;-23.3757817;-51.9645977;;;;2025-04-15;;False;;775.0623682999492
https://www.pedrogranado.com.br/comprar/maringa/apartamento/padrao/jardim-italia-ii/62123;Pedro Granado Imóveis;Jardim Itália Ii;320000.0;Padrão;Maringá;PR;62123.0;Apartamento;51.72;-23.4536769;-51.9374067;2.0;1.0;;2025-04-15;;False;;6187.161639597834
https://www.pedrogranado.com.br/comprar/maringa/casasobrado/casa/loteamento-madrid/48392;Pedro Granado Imóveis;Loteamento Madrid;325000.0;Casa;Maringá;PR;48392.0;Casa;89.75;-23.464473;-51.9139229;2.0;2.0;1.0;2025-04-15;;False;;3621.1699164345405
https://www.pedrogranado.com.br/comprar/maringa/apartamento/padrao/jd.-vila-bosque/287;Pedro Granado Imóveis;Jd. Vila Bosque;330000.0;Padrão;Maringá;PR;287.0;Apartamento;;-23.4389341;-51.92286810000002;2.0;2.0;1.0;2025-04-15;2025-08-07;True;114.0;
https://www.pedrogranado.com.br/comprar/maringa/apartamento/padrao/loteamento-malbec/4826;Pedro Granado Imóveis;Loteamento Malbec;330000.0;Padrão;Maringá;PR;4826.0;Apartamento;50.27;-23.4389341;-51.92286810000002;2.0;1.0;;2025-04-15;;False;;6564.551422319474
https://www.pedrogranado.com.br/comprar/maringa/apartamento/kitnet/jardim-aclimacao/29021;Pedro Granado Imóveis;Jardim Aclimacao;330000.0;Kitnet;Maringá;PR;29021.0;Apartamento;45.0;-23.4455971;-51.91466370000001;1.0;1.0;1.0;2025-04-15;2025-08-07;True;114.0;7333.333333333333
https://www.pedrogranado.com.br/comprar/maringa/casasobrado/casa/conjunto-residencial-branca-vieira/30053;Pedro Granado Imóveis;Conjunto Residencial Branca Vieira;330000.0;Casa;Maringá;PR;30053.0;Casa;370.05;-23.3973542;-51.8939001;4.0;2.0;1.0;2025-04-15;;False;;891.7713822456425
https://www.pedrogranado.com.br/comprar/maringa/terreno/comercial/jardim-reboucas/78653;Pedro Granado Imóveis;Jardim Rebouças;330000.0;Comercial;Maringá;PR;78653.0;Terreno;397.13;-23.38103972782237;-51.96565779084762;;;;2025-04-15;;False;;830.962153451011
https://www.pedrogranado.com.br/comprar/maringa/casasobrado/casa/jardim-atlanta/13892;Pedro Granado Imóveis;Jardim Atlânta;335000.0;Casa;Maringá;PR;13892.0;Casa;172.44;-23.41911981643571;-51.88130740477609;3.0;2.0;1.0;2025-04-15;;False;;1942.7047088842496
https://www.pedrogranado.com.br/comprar/maringa/apartamento/padrao/vila-emilia/20963;Pedro Granado Imóveis;Vila Emília;335000.0;Padrão;Maringá;PR;20963.0;Apartamento;54.34;-23.4488445;-51.9348034;2.0;1.0;;2025-04-15;;False;;6164.887743835112
https://www.pedrogranado.com.br/comprar/maringa/casasobrado/casa/jardim-monte-rei/40592;Pedro Granado Imóveis;Jardim Monte Rei;339000.0;Casa;Maringá;PR;40592.0;Casa;150.0;-23.3777757;-51.9544617;3.0;2.0;1.0;2025-04-15;2025-08-07;True;114.0;2260.0
https://www.pedrogranado.com.br/comprar/maringa/casasobrado/casa/jardim-tupinamba/29303;Pedro Granado Imóveis;Jardim Tupinambá;339000.0;Casa;Maringá;PR;29303.0;Casa;180.6;-23.41228859673546;-51.90479324111434;3.0;2.0;1.0;2025-04-15;2025-08-07;True;114.0;1877.0764119601329
https://www.pedrogranado.com.br/comprar/maringa/apartamento/padrao/zona-07/91772;Pedro Granado Imóveis;Zona 07;339700.0;Padrão;Maringá;PR;91772.0;Apartamento;59.4;-23.4158735;-51.95154729999999;2.0;2.0;1.0;2025-04-15;;False;;5718.855218855219
https://www.pedrogranado.com.br/comprar/maringa/apartamento/padrao/vila-vardelina/42122;Pedro Granado Imóveis;Vila Vardelina;340000.0;Padrão;Maringá;PR;42122.0;Apartamento;65.54;-23.40013573137337;-51.96582020182507;3.0;1.0;;2025-04-15;;False;;5187.6716509002135
https://www.pedrogranado.com.br/comprar/maringa/terreno/padrao/parque-industrial/26753;Pedro Granado Imóveis;Parque Industrial;340000.0;Padrão;Maringá;PR;26753.0;Terreno;401.55;-23.44688600463983;-51.97127701294505;;;;2025-04-15;;False;;846.718964014444
https://www.pedrogranado.com.br/comprar/maringa/comercial/sala-edcond/zona-05/53363;Pedro Granado Imóveis;Zona 05;340000.0;Sala Edcond;Maringá;PR;53363.0;Comercial;36.25;-23.4309074;-51.96316479999996;;1.0;;2025-04-15;;False;;9379.310344827587
https://www.pedrogranado.com.br/comprar/maringa/casasobrado/casa/jardim-imperio-do-sol/2069;Pedro Granado Imóveis;Jardim Império Do Sol;345000.0;Casa;Maringá;PR;2069.0;Casa;98.54;-23.3808093;-51.95510469999999;3.0;2.0;1.0;2025-04-15;;False;;3501.116297950071
https://www.pedrogranado.com.br/comprar/maringa/apartamento/padrao/jd.-vila-bosque/10253;Pedro Granado Imóveis;Jd. Vila Bosque;345000.0;Padrão;Maringá;PR;10253.0;Apartamento;50.55;-23.4390494;-51.9231419;2.0;2.0;1.0;2025-04-15;;False;;6824.92581602374
https://www.pedrogranado.com.br/comprar/maringa/apartamento/padrao/loteamento-malbec/5861;Pedro Granado Imóveis;Loteamento Malbec;350000.0;Padrão;Maringá;PR;5861.0;Apartamento;50.0;-23.4389341;-51.92286810000002;2.0;2.0;1.0;2025-04-15;2025-08-07;True;114.0;7000.0
https://www.pedrogranado.com.br/comprar/maringa/apartamento/padrao/jd.-vila-bosque/62951;Pedro Granado Imóveis;Jd. Vila Bosque;350000.0;Padrão;Maringá;PR;62951.0;Apartamento;50.03;-23.4389341;-51.92286810000002;2.0;2.0;1.0;2025-04-15;2025-08-07;True;114.0;6995.802518488907
https://www.pedrogranado.com.br/comprar/maringa/casasobrado/casa/jardim-sao-miguel/50072;Pedro Granado Imóveis;Jardim São Miguel;350000.0;Casa;Maringá;PR;50072.0;Casa;80.98;-23.4110533;-51.9716284;3.0;2.0;1.0;2025-04-15;2025-08-07;True;114.0;4322.05482835268
https://www.pedrogranado.com.br/comprar/maringa/apartamento/padrao/zona-07/70772;Pedro Granado Imóveis;Zona 07;350000.0;Padrão;Maringá;PR;70772.0;Apartamento;59.4;-23.4158735;-51.95154729999999;2.0;2.0;1.0;2025-04-15;;False;;5892.255892255893
https://www.pedrogranado.com.br/comprar/maringa/apartamento/padrao/zona-07/01772;Pedro Granado Imóveis;Zona 07;350000.0;Padrão;Maringá;PR;1772.0;Apartamento;60.2;-23.4158735;-51.95154729999999;2.0;2.0;1.0;2025-04-15;;False;;5813.953488372093
https://www.pedrogranado.com.br/comprar/maringa/apartamento/padrao/zona-07/61772;Pedro Granado Imóveis;Zona 07;350000.0;Padrão;Maringá;PR;61772.0;Apartamento;59.4;-23.4158735;-51.95154729999999;2.0;2.0;1.0;2025-04-15;;False;;5892.255892255893
https://www.pedrogranado.com.br/comprar/maringa/apartamento/padrao/zona-04/56303;Pedro Granado Imóveis;Zona 04;350000.0;Padrão;Maringá;PR;56303.0;Apartamento;77.59;-23.4305364;-51.9508446;2.0;1.0;;2025-04-15;;False;;4510.89057868282
https://www.pedrogranado.com.br/comprar/maringa/terreno/comercial/portal-das-torres/24803;Pedro Granado Imóveis;Portal Das Torres;350000.0;Comercial;Maringá;PR;24803.0;Terreno;386.0;-23.3709759;-51.93288740000001;;;;2025-04-15;2025-08-07;True;114.0;906.7357512953367
https://www.pedrogranado.com.br/comprar/maringa/apartamento/padrao/zona-07/66023;Pedro Granado Imóveis;Zona 07;350000.0;Padrão;Maringá;PR;66023.0;Apartamento;93.06;-23.4209995;-51.9330558;3.0;1.0;1.0;2025-04-15;2025-08-07;True;114.0;3761.0143993122715
https://www.pedrogranado.com.br/comprar/maringa/casasobrado/casa/jardim-ipanema/41333;Pedro Granado Imóveis;Jardim Ipanema;350000.0;Casa;Maringá;PR;41333.0;Casa;240.0;-23.45584514353633;-51.92973375320435;3.0;1.0;;2025-04-15;2025-08-07;True;114.0;1458.3333333333333
https://www.pedrogranado.com.br/comprar/maringa/casasobrado/casa/jardim-tres-lagoas/41843;Pedro Granado Imóveis;Jardim Três Lagoas;350000.0;Casa;Maringá;PR;41843.0;Casa;166.2;-23.3914011;-51.9721048;3.0;2.0;1.0;2025-04-15;;False;;2105.89651022864
https://www.pedrogranado.com.br/comprar/maringa/casasobrado/casa/jardim-toquio/53753;Pedro Granado Imóveis;Jardim Tóquio;350000.0;Casa;Maringá;PR;53753.0;Casa;151.27;-23.3890437;-51.9220825;3.0;2.0;1.0;2025-04-15;;False;;2313.7436372049974
https://www.pedrogranado.com.br/comprar/maringa/apartamento/padrao/zona-08/14753;Pedro Granado Imóveis;Zona 08;350000.0;Padrão;Maringá;PR;14753.0;Apartamento;53.0;-23.4456574;-51.91324119999999;2.0;1.0;;2025-04-15;;False;;6603.773584905661
https://www.pedrogranado.com.br/comprar/maringa/apartamento/padrao/zona-07/81743;Pedro Granado Imóveis;Zona 07;360000.0;Padrão;Maringá;PR;81743.0;Apartamento;89.98;-23.4113917;-51.9325685;3.0;2.0;1.0;2025-04-15;2025-08-07;True;114.0;4000.8890864636583
https://www.pedrogranado.com.br/comprar/maringa/apartamento/padrao/vila-vardelina/01253;Pedro Granado Imóveis;Vila Vardelina;360000.0;Padrão;Maringá;PR;1253.0;Apartamento;65.54;-23.4005361;-51.964789;3.0;1.0;;2025-04-15;;False;;5492.82880683552
https://www.pedrogranado.com.br/comprar/maringa/apartamento/padrao/zona-03/81443;Pedro Granado Imóveis;Zona 03;365000.0;Padrão;Maringá;PR;81443.0;Apartamento;77.16;-23.4240445;-51.9236845;3.0;2.0;1.0;2025-04-15;2025-08-07;True;114.0;4730.430274753759
https://www.pedrogranado.com.br/comprar/maringa/apartamento/padrao/zona-07/4922;Pedro Granado Imóveis;Zona 07;370000.0;Padrão;Maringá;PR;4922.0;Apartamento;70.0;-23.414929;-51.92892899999998;2.0;2.0;1.0;2025-04-15;;False;;5285.714285714285
https://www.pedrogranado.com.br/comprar/maringa/apartamento/padrao/vila-bosque/35681;Pedro Granado Imóveis;Vila Bosque;370000.0;Padrão;Maringá;PR;35681.0;Apartamento;47.64;-23.43971331312334;-51.92631034536896;2.0;1.0;;2025-04-15;2025-08-03;True;110.0;7766.582703610411
https://www.pedrogranado.com.br/comprar/maringa/apartamento/padrao/zona-06/60182;Pedro Granado Imóveis;Zona 06;370000.0;Padrão;Maringá;PR;60182.0;Apartamento;51.7;-23.4214761;-51.9561602;2.0;1.0;;2025-04-15;2025-08-07;True;114.0;7156.6731141199225
https://www.pedrogranado.com.br/comprar/maringa/casasobrado/casa/jardim-ipanema/67553;Pedro Granado Imóveis;Jardim Ipanema;370000.0;Casa;Maringá;PR;67553.0;Casa;160.0;-23.4585998;-51.920428;3.0;2.0;1.0;2025-04-15;;False;;2312.5
https://www.pedrogranado.com.br/comprar/maringa/apartamento/padrao/jardim-universitario/95831;Pedro Granado Imóveis;Jardim Universitário;375000.0;Padrão;Maringá;PR;95831.0;Apartamento;55.76;-23.4071173;-51.9421188;2.0;1.0;;2025-04-15;;False;;6725.251076040173
https://www.pedrogranado.com.br/comprar/maringa/apartamento/padrao/jd.-vila-bosque/53462;Pedro Granado Imóveis;Jd. Vila Bosque;375000.0;Padrão;Maringá;PR;53462.0;Apartamento;50.38;-23.4389299;-51.9223751;2.0;2.0;1.0;2025-04-15;;False;;7443.429932512901
https://www.pedrogranado.com.br/comprar/maringa/apartamento/padrao/vila-emilia/60353;Pedro Granado Imóveis;Vila Emília;375000.0;Padrão;Maringá;PR;60353.0;Apartamento;54.34;-23.4488445;-51.9348034;2.0;1.0;;2025-04-15;;False;;6900.993743099006
https://www.pedrogranado.com.br/alugar/maringa/apartamento/padrao/jardim-aclimacao/07853;Pedro Granado Imóveis;Jardim Aclimacao;;Padrão;Maringá;PR;7853.0;Apartamento;51.77;-23.4474205;-51.9199579;2.0;1.0;;2025-04-15;2025-08-07;True;114.0;
https://www.pedrogranado.com.br/comprar/maringa/apartamento/padrao/zona-08/43163;Pedro Granado Imóveis;Zona 08;375000.0;Padrão;Maringá;PR;43163.0;Apartamento;45.66;-23.433107;-51.92409420000001;1.0;1.0;;2025-04-15;;False;;8212.87779237845
https://www.pedrogranado.com.br/comprar/maringa/terreno/padrao/residencial-moreschi/14363;Pedro Granado Imóveis;Residencial Moreschi;375000.0;Padrão;Maringá;PR;14363.0;Terreno;300.44;-23.4035088;-51.9491955;;;;2025-04-15;;False;;1248.1693516176274
https://www.pedrogranado.com.br/comprar/maringa/apartamento/padrao/vila-marumby/12542;Pedro Granado Imóveis;Vila Marumby;380000.0;Padrão;Maringá;PR;12542.0;Apartamento;79.8;-23.442991;-51.929532;3.0;2.0;1.0;2025-04-15;;False;;4761.904761904762
https://www.pedrogranado.com.br/comprar/maringa/casasobrado/casa/parque-palmeiras/86333;Pedro Granado Imóveis;Parque Palmeiras;380000.0;Casa;Maringá;PR;86333.0;Casa;150.0;-23.38992841592905;-51.94041655295163;2.0;1.0;;2025-04-15;2025-08-07;True;114.0;2533.3333333333335
https://www.pedrogranado.com.br/comprar/maringa/apartamento/padrao/zona-03/69833;Pedro Granado Imóveis;Zona 03;380000.0;Padrão;Maringá;PR;69833.0;Apartamento;85.45;-23.4242183;-51.9233005;3.0;2.0;1.0;2025-04-15;2025-08-07;True;114.0;4447.045055588063
https://www.pedrogranado.com.br/comprar/maringa/terreno/padrao/bom-jardim/49073;Pedro Granado Imóveis;Bom Jardim;380000.0;Padrão;Maringá;PR;49073.0;Terreno;388.74;-23.4127837;-51.8866435;;;;2025-04-15;;False;;977.5171065493646
https://www.pedrogranado.com.br/comprar/maringa/casasobrado/casa/jardim-brasil/7847;Pedro Granado Imóveis;Jardim Brasil;385000.0;Casa;Maringá;PR;7847.0;Casa;150.0;-23.3898364;-51.9558017;4.0;3.0;2.0;2025-04-15;;False;;2566.6666666666665
https://www.pedrogranado.com.br/comprar/maringa/apartamento/padrao/zona-03/8126;Pedro Granado Imóveis;Zona 03;390000.0;Padrão;Maringá;PR;8126.0;Apartamento;58.17;-23.4226575;-51.9216662;2.0;2.0;1.0;2025-04-15;2025-08-07;True;114.0;6704.486848891181
https://www.pedrogranado.com.br/comprar/maringa/casasobrado/casa/jardim-paulista-iii/33533;Pedro Granado Imóveis;Jardim Paulista Iii;390000.0;Casa;Maringá;PR;33533.0;Casa;154.7;-23.40596468915655;-51.87115678098144;3.0;2.0;1.0;2025-04-15;2025-08-07;True;114.0;2521.008403361345
https://www.pedrogranado.com.br/comprar/maringa/apartamento/padrao/zona-07/82253;Pedro Granado Imóveis;Zona 07;390000.0;Padrão;Maringá;PR;82253.0;Apartamento;85.7;-23.4096986;-51.9332315;3.0;2.0;1.0;2025-04-15;;False;;4550.758459743291
https://www.pedrogranado.com.br/comprar/maringa/apartamento/padrao/zona-03/04163;Pedro Granado Imóveis;Zona 03;390000.0;Padrão;Maringá;PR;4163.0;Apartamento;143.0;-23.42451238195035;-51.92507582268447;3.0;5.0;3.0;2025-04-15;;False;;2727.2727272727275
https://www.pedrogranado.com.br/comprar/maringa/terreno/padrao/bom-jardim/21863;Pedro Granado Imóveis;Bom Jardim;390000.0;Padrão;Maringá;PR;21863.0;Terreno;375.0;-23.4115203;-51.8895948;;;;2025-04-15;;False;;1040.0
https://www.pedrogranado.com.br/comprar/maringa/apartamento/padrao/vila-bosque/98132;Pedro Granado Imóveis;Vila Bosque;395000.0;Padrão;Maringá;PR;98132.0;Apartamento;47.94;-23.43971331312334;-51.92631034536896;2.0;1.0;;2025-04-15;2025-08-07;True;114.0;8239.465999165624
https://www.pedrogranado.com.br/comprar/maringa/casasobrado/casa/jardim-paris/8345;Pedro Granado Imóveis;Jardim Paris;399000.0;Casa;Maringá;PR;8345.0;Casa;127.5;-23.3851949;-51.94889839999996;3.0;3.0;1.0;2025-04-15;;False;;3129.4117647058824
https://www.pedrogranado.com.br/comprar/maringa/casasobrado/casa/parque-residencial-tuiuti/7748;Pedro Granado Imóveis;Parque Residencial Tuiuti;399000.0;Casa;Maringá;PR;7748.0;Casa;300.1;-23.3990345;-51.89713180000001;4.0;2.0;;2025-04-15;2025-08-07;True;114.0;1329.5568143952014
https://www.pedrogranado.com.br/comprar/maringa/terreno/comercial/chacaras-aeroporto/45923;Pedro Granado Imóveis;Chácaras Aeroporto;400000.0;Comercial;Maringá;PR;45923.0;Terreno;703.44;-23.47398649561949;-51.9087866142334;;;;2025-04-15;2025-08-07;True;114.0;568.6341407938132
https://www.pedrogranado.com.br/comprar/maringa/casasobrado/casa/jardim-sao-jorge/56153;Pedro Granado Imóveis;Jardim São Jorge;400000.0;Casa;Maringá;PR;56153.0;Casa;360.0;-23.3995961;-51.9629978;3.0;2.0;1.0;2025-04-15;;False;;1111.111111111111
https://www.pedrogranado.com.br/comprar/maringa/apartamento/padrao/zona-07/59663;Pedro Granado Imóveis;Zona 07;400000.0;Padrão;Maringá;PR;59663.0;Apartamento;106.21;-23.4142454;-51.9361003;3.0;3.0;1.0;2025-04-15;2025-08-07;True;114.0;3766.123717164109
https://www.pedrogranado.com.br/comprar/maringa/apartamento/padrao/zona-03/95363;Pedro Granado Imóveis;Zona 03;410000.0;Padrão;Maringá;PR;95363.0;Apartamento;96.07;-23.4237767;-51.9272259;3.0;2.0;;2025-04-15;;False;;4267.7214531071095
https://www.pedrogranado.com.br/comprar/maringa/apartamento/kitnet/zona-01/30641;Pedro Granado Imóveis;Zona 01;415000.0;Kitnet;Maringá;PR;30641.0;Apartamento;41.63;-23.4186227;-51.9361424;1.0;1.0;;2025-04-15;;False;;9968.77251981744
https://www.pedrogranado.com.br/comprar/maringa/casasobrado/casa/jardim-paulista/11672;Pedro Granado Imóveis;Jardim Paulista;415000.0;Casa;Maringá;PR;11672.0;Casa;136.47;-23.413183;-51.8649182;3.0;2.0;;2025-04-15;;False;;3040.9613834542392
https://www.pedrogranado.com.br/comprar/maringa/casasobrado/casa/jardim-monte-rei/97862;Pedro Granado Imóveis;Jardim Monte Rei;420000.0;Casa;Maringá;PR;97862.0;Casa;97.0;-23.3781374;-51.954539;3.0;2.0;1.0;2025-04-15;2025-08-07;True;114.0;4329.896907216495
https://www.pedrogranado.com.br/comprar/maringa/casasobrado/casa/jardim-monte-rei/12962;Pedro Granado Imóveis;Jardim Monte Rei;420000.0;Casa;Maringá;PR;12962.0;Casa;97.0;-23.3774784;-51.95623860000001;3.0;2.0;1.0;2025-04-15;;False;;4329.896907216495
https://www.pedrogranado.com.br/comprar/maringa/casasobrado/casa/conjunto-residencial-cidade-alta/05192;Pedro Granado Imóveis;Conjunto Residencial Cidade Alta;420000.0;Casa;Maringá;PR;5192.0;Casa;107.66;-23.4661571;-51.90641489999999;3.0;3.0;1.0;2025-04-15;;False;;3901.1703511053315
https://www.pedrogranado.com.br/comprar/maringa/apartamento/padrao/zona-07/21803;Pedro Granado Imóveis;Zona 07;420000.0;Padrão;Maringá;PR;21803.0;Apartamento;95.54;-23.4147878;-51.9211733;2.0;2.0;1.0;2025-04-15;;False;;4396.064475612308
https://www.pedrogranado.com.br/comprar/maringa/terreno/padrao/jardim-laodiceia/18143;Pedro Granado Imóveis;Jardim Laodiceia;420000.0;Padrão;Maringá;PR;18143.0;Terreno;300.08;-23.4382638;-51.9487304;;;;2025-04-15;2025-08-07;True;114.0;1399.6267661956813
https://www.pedrogranado.com.br/comprar/maringa/apartamento/padrao/jardim-aclimacao/67343;Pedro Granado Imóveis;Jardim Aclimacao;425000.0;Padrão;Maringá;PR;67343.0;Apartamento;50.83;-23.4209995;-51.9330558;2.0;1.0;;2025-04-15;;False;;8361.204013377926
https://www.pedrogranado.com.br/comprar/maringa/apartamento/padrao/zona-07/95762;Pedro Granado Imóveis;Zona 07;430000.0;Padrão;Maringá;PR;95762.0;Apartamento;123.61;-23.4149323;-51.9451895;3.0;2.0;1.0;2025-04-15;;False;;3478.682954453523
https://www.pedrogranado.com.br/comprar/maringa/terreno/comercial/conjunto-residencial-cidade-alta/75923;Pedro Granado Imóveis;Conjunto Residencial Cidade Alta;430000.0;Comercial;Maringá;PR;75923.0;Terreno;716.1;-23.463909;-51.9157389;;;;2025-04-15;;False;;600.4747940231811
https://www.pedrogranado.com.br/comprar/maringa/casasobrado/casa/jardim-real/45533;Pedro Granado Imóveis;Jardim Real;430000.0;Casa;Maringá;PR;45533.0;Casa;180.0;-23.3952107;-51.9459674;2.0;2.0;1.0;2025-04-15;;False;;2388.8888888888887
https://www.pedrogranado.com.br/comprar/maringa/apartamento/padrao/zona-08/46553;Pedro Granado Imóveis;Zona 08;430000.0;Padrão;Maringá;PR;46553.0;Apartamento;54.45;-23.4468027;-51.9194791;2.0;1.0;;2025-04-15;;False;;7897.153351698806
https://www.pedrogranado.com.br/comprar/maringa/apartamento/padrao/jardim-cerro-azul/32792;Pedro Granado Imóveis;Jardim Cerro Azul;435000.0;Padrão;Maringá;PR;32792.0;Apartamento;52.5;-23.4396254;-51.9377224;2.0;2.0;1.0;2025-04-15;2025-08-07;True;114.0;8285.714285714286
https://www.pedrogranado.com.br/comprar/maringa/predio/inteiro/jardim-ipanema/49043;Pedro Granado Imóveis;Jardim Ipanema;439000.0;Inteiro;Maringá;PR;49043.0;Apartamento;178.16;-23.4570369;-51.9231669;;;;2025-04-15;2025-08-07;True;114.0;2464.077233947014
https://www.pedrogranado.com.br/comprar/maringa/apartamento/padrao/zona-06/67841;Pedro Granado Imóveis;Zona 06;440000.0;Padrão;Maringá;PR;67841.0;Apartamento;104.63;-23.426572;-51.96593000000001;3.0;2.0;1.0;2025-04-15;2025-08-07;True;114.0;4205.29484851381
https://www.pedrogranado.com.br/comprar/maringa/apartamento/padrao/zona-07/10313;Pedro Granado Imóveis;Zona 07;440000.0;Padrão;Maringá;PR;10313.0;Apartamento;67.95;-23.409085;-51.94273190000001;2.0;2.0;1.0;2025-04-15;;False;;6475.349521707138
https://www.pedrogranado.com.br/comprar/maringa/casasobrado/sobrado/jardim-santa-rosa/9662;Pedro Granado Imóveis;Jardim Santa Rosa;450000.0;Sobrado;Maringá;PR;9662.0;Casa;129.21;-23.4556987;-51.95771300000001;3.0;2.0;1.0;2025-04-15;2025-08-07;True;114.0;3482.702577199907
https://www.pedrogranado.com.br/comprar/maringa/apartamento/kitnet/zona-01/66332;Pedro Granado Imóveis;Zona 01;450000.0;Kitnet;Maringá;PR;66332.0;Apartamento;41.63;-23.4183238;-51.9357612;1.0;1.0;;2025-04-15;;False;;10809.51237088638
https://www.pedrogranado.com.br/comprar/maringa/casasobrado/casa/parque-da-gavea/50792;Pedro Granado Imóveis;Parque Da Gávea;450000.0;Casa;Maringá;PR;50792.0;Casa;150.0;-23.4529411;-51.9194429;2.0;2.0;1.0;2025-04-15;;False;;3000.0
https://www.pedrogranado.com.br/comprar/maringa/casasobrado/casa/jardim-sao-francisco/60923;Pedro Granado Imóveis;Jardim São Francisco;450000.0;Casa;Maringá;PR;60923.0;Casa;97.8;-23.4016189;-51.8910057;3.0;2.0;1.0;2025-04-15;;False;;4601.226993865031
https://www.pedrogranado.com.br/comprar/maringa/apartamento/padrao/zona-01/97163;Pedro Granado Imóveis;Zona 01;450000.0;Padrão;Maringá;PR;97163.0;Apartamento;51.4;-23.4225607;-51.94109049999999;2.0;2.0;1.0;2025-04-15;2025-08-07;True;114.0;8754.863813229573
https://www.pedrogranado.com.br/comprar/maringa/apartamento/padrao/chacara-paulista/17663;Pedro Granado Imóveis;Chácara Paulista;450000.0;Padrão;Maringá;PR;17663.0;Apartamento;91.05;-23.440937;-51.93249720000001;3.0;2.0;1.0;2025-04-15;;False;;4942.339373970346
https://www.pedrogranado.com.br/comprar/maringa/casasobrado/casa/jardim-paris/80753;Pedro Granado Imóveis;Jardim Paris;455000.0;Casa;Maringá;PR;80753.0;Casa;150.0;-23.3846017;-51.9542793;3.0;2.0;1.0;2025-04-15;;False;;3033.3333333333335
https://www.pedrogranado.com.br/comprar/maringa/casasobrado/casa/jardim-parque-do-horto/10952;Pedro Granado Imóveis;Jardim Parque Do Horto;460000.0;Casa;Maringá;PR;10952.0;Casa;117.82;-23.439111;-51.9650425;1.0;2.0;1.0;2025-04-15;;False;;3904.2607367170262
https://www.pedrogranado.com.br/comprar/maringa/casasobrado/casa/jardim-sao-paulo/01643;Pedro Granado Imóveis;Jardim São Paulo;460000.0;Casa;Maringá;PR;1643.0;Casa;118.85;-23.4654001;-51.9266795;3.0;3.0;1.0;2025-04-15;2025-08-07;True;114.0;3870.4249053428694
https://www.pedrogranado.com.br/comprar/maringa/apartamento/padrao/zona-08/47363;Pedro Granado Imóveis;Zona 08;460000.0;Padrão;Maringá;PR;47363.0;Apartamento;55.34;-23.4468027;-51.9194791;2.0;1.0;;2025-04-15;;False;;8312.251535959522
https://www.pedrogranado.com.br/comprar/maringa/apartamento/padrao/zona-08/79073;Pedro Granado Imóveis;Zona 08;460000.0;Padrão;Maringá;PR;79073.0;Apartamento;55.34;-23.4468397643704;-51.91954404115677;2.0;1.0;;2025-04-15;2025-08-07;True;114.0;8312.251535959522
https://www.pedrogranado.com.br/comprar/maringa/apartamento/padrao/zona-07/14102;Pedro Granado Imóveis;Zona 07;465000.0;Padrão;Maringá;PR;14102.0;Apartamento;66.44;-23.4115522;-51.9450356;2.0;2.0;1.0;2025-04-15;2025-08-07;True;114.0;6998.795906080674
https://www.pedrogranado.com.br/comprar/maringa/casasobrado/casa/jardim-italia-ii/15863;Pedro Granado Imóveis;Jardim Itália Ii;;Casa;Maringá;PR;15863.0;Casa;111.89;-23.4534946;-51.939481;3.0;2.0;1.0;2025-04-15;;False;;
https://www.pedrogranado.com.br/comprar/maringa/apartamento/padrao/vila-nova/2393;Pedro Granado Imóveis;Vila Nova;480000.0;Padrão;Maringá;PR;2393.0;Apartamento;69.97;-23.4233389;-51.90479219999997;2.0;2.0;1.0;2025-04-15;;False;;6860.082892668286
https://www.pedrogranado.com.br/comprar/maringa/casasobrado/casa/jardim-alvorada/52532;Pedro Granado Imóveis;Jardim Alvorada;480000.0;Casa;Maringá;PR;52532.0;Casa;238.45;-23.3996968;-51.9086461;6.0;3.0;;2025-04-15;;False;;2013.0006290626966
https://www.pedrogranado.com.br/comprar/maringa/casasobrado/casa/jardim-alvorada/92252;Pedro Granado Imóveis;Jardim Alvorada;480000.0;Casa;Maringá;PR;92252.0;Casa;234.75;-23.4004653;-51.9110738;3.0;3.0;1.0;2025-04-15;;False;;2044.7284345047924
https://www.pedrogranado.com.br/comprar/maringa/apartamento/padrao/zona-08/71603;Pedro Granado Imóveis;Zona 08;480000.0;Padrão;Maringá;PR;71603.0;Apartamento;55.18;-23.4468027;-51.9194791;2.0;1.0;;2025-04-15;;False;;8698.803914461761
https://www.pedrogranado.com.br/comprar/maringa/apartamento/flat/zona-01/06113;Pedro Granado Imóveis;Zona 01;480000.0;Flat;Maringá;PR;6113.0;Apartamento;35.0;-23.4209995;-51.9330558;1.0;1.0;;2025-04-15;2025-08-07;True;114.0;13714.285714285714
https://www.pedrogranado.com.br/alugar/maringa/apartamento/padrao/zona-01/92933;Pedro Granado Imóveis;Zona 01;;Padrão;Maringá;PR;92933.0;Apartamento;157.0;-23.4242395;-51.93492500000001;3.0;3.0;1.0;2025-04-15;2025-08-07;True;114.0;
https://www.pedrogranado.com.br/comprar/maringa/apartamento/padrao/zona-01/8702;Pedro Granado Imóveis;Zona 01;490000.0;Padrão;Maringá;PR;8702.0;Apartamento;90.0;-23.4211492;-51.931399;3.0;2.0;1.0;2025-04-15;2025-08-07;True;114.0;5444.444444444444
https://www.pedrogranado.com.br/alugar/maringa/apartamento/padrao/jardim-hanover/9107;Pedro Granado Imóveis;Jardim Hanover;;Padrão;Maringá;PR;9107.0;Apartamento;77.7;-23.4385502;-51.92728920000002;3.0;2.0;1.0;2025-04-15;2025-08-07;True;114.0;
https://www.pedrogranado.com.br/comprar/maringa/apartamento/padrao/zona-08/85043;Pedro Granado Imóveis;Zona 08;490000.0;Padrão;Maringá;PR;85043.0;Apartamento;58.63;-23.4468027;-51.9194791;2.0;2.0;1.0;2025-04-15;;False;;8357.496162374211
https://www.pedrogranado.com.br/comprar/maringa/apartamento/padrao/zona-07/38453;Pedro Granado Imóveis;Zona 07;490000.0;Padrão;Maringá;PR;38453.0;Apartamento;65.83;-23.4171468;-51.9471882;2.0;2.0;1.0;2025-04-15;2025-08-07;True;114.0;7443.414856448428
https://www.pedrogranado.com.br/comprar/maringa/apartamento/padrao/vila-nova/60653;Pedro Granado Imóveis;Vila Nova;490000.0;Padrão;Maringá;PR;60653.0;Apartamento;82.0;-23.4260347;-51.9042773;3.0;2.0;1.0;2025-04-15;;False;;5975.609756097561
https://www.pedrogranado.com.br/comprar/maringa/casasobrado/casa/jardim-paulista-iv/80063;Pedro Granado Imóveis;Jardim Paulista Iv;490000.0;Casa;Maringá;PR;80063.0;Casa;117.0;-23.405749;-51.8698687;3.0;3.0;1.0;2025-04-15;;False;;4188.034188034188
https://www.pedrogranado.com.br/comprar/maringa/apartamento/padrao/zona-01/30932;Pedro Granado Imóveis;Zona 01;495000.0;Padrão;Maringá;PR;30932.0;Apartamento;79.63;-23.4230335;-51.9360693;3.0;2.0;;2025-04-15;;False;;6216.250156976014
https://www.pedrogranado.com.br/comprar/maringa/casasobrado/sobrado/jardim-paulista/08633;Pedro Granado Imóveis;Jardim Paulista;495000.0;Sobrado;Maringá;PR;8633.0;Casa;199.77;-23.4120041;-51.8653274;4.0;3.0;1.0;2025-04-15;2025-08-07;True;114.0;2477.8495269559994
https://www.pedrogranado.com.br/comprar/maringa/apartamento/padrao/zona-07/11663;Pedro Granado Imóveis;Zona 07;495000.0;Padrão;Maringá;PR;11663.0;Apartamento;65.83;-23.4171468;-51.9471882;2.0;2.0;1.0;2025-04-15;2025-08-07;True;114.0;7519.368069269331
https://www.pedrogranado.com.br/comprar/maringa/apartamento/padrao/zona-07/41663;Pedro Granado Imóveis;Zona 07;495000.0;Padrão;Maringá;PR;41663.0;Apartamento;65.83;-23.4171468;-51.9471882;2.0;2.0;1.0;2025-04-15;2025-08-07;True;114.0;7519.368069269331
https://www.pedrogranado.com.br/comprar/maringa/casasobrado/sobrado/jardim-colina-verde/926;Pedro Granado Imóveis;Jardim Colina Verde;500000.0;Sobrado;Maringá;PR;926.0;Casa;150.0;-23.3935822;-51.88761260000001;2.0;2.0;1.0;2025-04-15;;False;;3333.3333333333335
https://www.pedrogranado.com.br/comprar/maringa/comercial/salao/zona-06/8747;Pedro Granado Imóveis;Zona 06;500000.0;Salão;Maringá;PR;8747.0;Comercial;78.45;-23.417406;-51.9583988;;1.0;;2025-04-15;;False;;6373.486297004461
https://www.pedrogranado.com.br/comprar/maringa/comercial/sala-edcond/zona-01/35732;Pedro Granado Imóveis;Zona 01;500000.0;Sala Edcond;Maringá;PR;35732.0;Comercial;54.0;-23.42196796558981;-51.94511744788513;;2.0;;2025-04-15;;False;;9259.25925925926
https://www.pedrogranado.com.br/comprar/maringa/casasobrado/casa/parque-das-laranjeiras/88163;Pedro Granado Imóveis;Parque Das Laranjeiras;510000.0;Casa;Maringá;PR;88163.0;Casa;104.0;-23.39278;-51.9612804;3.0;2.0;1.0;2025-04-15;;False;;4903.846153846154
https://www.pedrogranado.com.br/comprar/maringa/apartamento/padrao/zona-01/2837;Pedro Granado Imóveis;Zona 01;520000.0;Padrão;Maringá;PR;2837.0;Apartamento;96.83;-23.4232491;-51.94295030000001;3.0;2.0;1.0;2025-04-15;2025-08-07;True;114.0;5370.236496953424
https://www.pedrogranado.com.br/comprar/maringa/rural/chacara/estrada-das-rosas/78392;Pedro Granado Imóveis;Estrada Das Rosas;520000.0;Chácara;Maringá;PR;78392.0;Fazenda;4000.0;-23.36247132936963;-51.91184620426025;;;;2025-04-15;;False;;130.0
https://www.pedrogranado.com.br/comprar/maringa/terreno/padrao/jardim-campo-belo/97703;Pedro Granado Imóveis;Jardim Campo Belo;520000.0;Padrão;Maringá;PR;97703.0;Terreno;546.0;-23.40003958784058;-51.9824882767559;;;;2025-04-15;;False;;952.3809523809524
https://www.pedrogranado.com.br/comprar/maringa/casasobrado/casa/parque-hortencia/10343;Pedro Granado Imóveis;Parque Hortência;520000.0;Casa;Maringá;PR;10343.0;Casa;315.96;-23.3950838;-51.9747086;3.0;3.0;1.0;2025-04-15;2025-08-07;True;114.0;1645.777946575516
https://www.pedrogranado.com.br/comprar/maringa/apartamento/padrao/zona-02/41963;Pedro Granado Imóveis;Zona 02;525000.0;Padrão;Maringá;PR;41963.0;Apartamento;60.27;-23.4396792;-51.939768;2.0;2.0;1.0;2025-04-15;2025-08-07;True;114.0;8710.801393728223
https://www.pedrogranado.com.br/comprar/maringa/apartamento/padrao/vila-nova/6575;Pedro Granado Imóveis;Vila Nova;530000.0;Padrão;Maringá;PR;6575.0;Apartamento;69.97;-23.4233389;-51.90479219999997;2.0;2.0;1.0;2025-04-15;;False;;7574.674860654566
https://www.pedrogranado.com.br/comprar/maringa/apartamento/padrao/zona-04/43982;Pedro Granado Imóveis;Zona 04;530000.0;Padrão;Maringá;PR;43982.0;Apartamento;84.7;-23.430748;-51.95065399999999;3.0;2.0;1.0;2025-04-15;2025-08-07;True;114.0;6257.378984651712
https://www.pedrogranado.com.br/comprar/maringa/casasobrado/casa/jardim-liberdade/75413;Pedro Granado Imóveis;Jardim Liberdade;530000.0;Casa;Maringá;PR;75413.0;Casa;300.0;-23.4174099;-51.8917156;4.0;3.0;1.0;2025-04-15;;False;;1766.6666666666667
https://www.pedrogranado.com.br/comprar/maringa/comercial/salao/jardim-alvorada/52253;Pedro Granado Imóveis;Jardim Alvorada;530000.0;Salão;Maringá;PR;52253.0;Comercial;100.0;-23.3939095;-51.9135879;;1.0;;2025-04-15;;False;;5300.0
https://www.pedrogranado.com.br/comprar/maringa/apartamento/padrao/zona-08/86063;Pedro Granado Imóveis;Zona 08;530000.0;Padrão;Maringá;PR;86063.0;Apartamento;59.21;-23.4345201;-51.91149979999999;2.0;2.0;1.0;2025-04-15;;False;;8951.190677250464
https://www.pedrogranado.com.br/comprar/maringa/apartamento/padrao/zona-07/69053;Pedro Granado Imóveis;Zona 07;540000.0;Padrão;Maringá;PR;69053.0;Apartamento;141.64;-23.4162245;-51.9327492;4.0;3.0;1.0;2025-04-15;2025-08-07;True;114.0;3812.4823496187523
https://www.pedrogranado.com.br/comprar/maringa/apartamento/padrao/zona-02/59702;Pedro Granado Imóveis;Zona 02;545000.0;Padrão;Maringá;PR;59702.0;Apartamento;60.0;-23.4395124;-51.9404912;2.0;2.0;1.0;2025-04-15;2025-08-07;True;114.0;9083.333333333334
https://www.pedrogranado.com.br/comprar/maringa/apartamento/padrao/zona-04/99953;Pedro Granado Imóveis;Zona 04;545000.0;Padrão;Maringá;PR;99953.0;Apartamento;143.86;-23.4209995;-51.9330558;3.0;2.0;1.0;2025-04-15;;False;;3788.4053941331845
https://www.pedrogranado.com.br/comprar/maringa/casasobrado/casa/jardim-paulista-iii/07073;Pedro Granado Imóveis;Jardim Paulista Iii;545000.0;Casa;Maringá;PR;7073.0;Casa;152.77;-23.4039594;-51.8722199;4.0;3.0;1.0;2025-04-15;;False;;3567.4543431301954
https://www.pedrogranado.com.br/comprar/maringa/apartamento/padrao/zona-08/17981;Pedro Granado Imóveis;Zona 08;550000.0;Padrão;Maringá;PR;17981.0;Apartamento;40.0;-23.4356273;-51.91078859999999;1.0;2.0;1.0;2025-04-15;2025-08-07;True;114.0;13750.0
https://www.pedrogranado.com.br/comprar/maringa/casasobrado/casa/jardim-pilar/62342;Pedro Granado Imóveis;Jardim Pilar;550000.0;Casa;Maringá;PR;62342.0;Casa;143.49;-23.3763655;-51.9646829;3.0;3.0;1.0;2025-04-15;2025-08-07;True;114.0;3833.019722628754
https://www.pedrogranado.com.br/comprar/maringa/casasobrado/sobrado/vila-morangueira/06362;Pedro Granado Imóveis;Vila Morangueira;550000.0;Sobrado;Maringá;PR;6362.0;Casa;241.46;-23.410138;-51.9207766;3.0;2.0;;2025-04-15;;False;;2277.8099892321707
https://www.pedrogranado.com.br/comprar/maringa/terreno/comercial/jardim-novo-horizonte/13013;Pedro Granado Imóveis;Jardim Novo Horizonte;550000.0;Comercial;Maringá;PR;13013.0;Terreno;288.0;-23.453901;-51.9315814;;;;2025-04-15;2025-08-07;True;114.0;1909.7222222222222
https://www.pedrogranado.com.br/comprar/maringa/casasobrado/casa/zona-06/47153;Pedro Granado Imóveis;Zona 06;550000.0;Casa;Maringá;PR;47153.0;Casa;575.24;-23.4240115;-51.9657679;3.0;2.0;;2025-04-15;;False;;956.1226618454906
https://www.pedrogranado.com.br/comprar/maringa/casasobrado/casa/cidade-universitaria/73463;Pedro Granado Imóveis;Cidade Universitária;550000.0;Casa;Maringá;PR;73463.0;Casa;118.23;-23.4033383;-51.959506;3.0;2.0;1.0;2025-04-15;;False;;4651.949589782627
https://www.pedrogranado.com.br/alugar/maringa/apartamento/padrao/zona-05/72563;Pedro Granado Imóveis;Zona 05;;Padrão;Maringá;PR;72563.0;Apartamento;100.29;-23.42540901286745;-51.95319646137696;3.0;2.0;1.0;2025-04-15;;False;;
https://www.pedrogranado.com.br/comprar/maringa/casasobrado/casa/jardim-liberdade/11963;Pedro Granado Imóveis;Jardim Liberdade;550000.0;Casa;Maringá;PR;11963.0;Casa;141.38;-23.4162499;-51.8955947;3.0;3.0;1.0;2025-04-15;2025-08-07;True;114.0;3890.2249257320696
https://www.pedrogranado.com.br/comprar/maringa/apartamento/padrao/zona-05/03563;Pedro Granado Imóveis;Zona 05;560000.0;Padrão;Maringá;PR;3563.0;Apartamento;102.91;-23.42540901286745;-51.95319646137696;3.0;2.0;1.0;2025-04-15;;False;;5441.6480419784275
https://www.pedrogranado.com.br/comprar/maringa/casasobrado/casa/residencial-moreschi/53033;Pedro Granado Imóveis;Residencial Moreschi;569000.0;Casa;Maringá;PR;53033.0;Casa;105.0;-23.4027958;-51.9500864;3.0;2.0;1.0;2025-04-15;;False;;5419.047619047619
https://www.pedrogranado.com.br/comprar/maringa/terreno/comercial/zona-06/90533;Pedro Granado Imóveis;Zona 06;570000.0;Comercial;Maringá;PR;90533.0;Terreno;340.0;-23.4230564;-51.9652802;;;;2025-04-15;;False;;1676.4705882352941
https://www.pedrogranado.com.br/comprar/maringa/apartamento/padrao/zona-07/46733;Pedro Granado Imóveis;Zona 07;570000.0;Padrão;Maringá;PR;46733.0;Apartamento;122.29;-23.4140585;-51.930653;3.0;3.0;1.0;2025-04-15;2025-08-07;True;114.0;4661.051598658925
https://www.pedrogranado.com.br/comprar/maringa/casasobrado/casa/jardim-leblon/09242;Pedro Granado Imóveis;Jardim Leblon;580000.0;Casa;Maringá;PR;9242.0;Casa;138.0;-23.4571118;-51.9190663;3.0;2.0;1.0;2025-04-15;;False;;4202.898550724638
https://www.pedrogranado.com.br/comprar/maringa/casasobrado/casa/jardim-real/74762;Pedro Granado Imóveis;Jardim Real;580000.0;Casa;Maringá;PR;74762.0;Casa;144.32;-23.3945306;-51.9531013;3.0;2.0;1.0;2025-04-15;;False;;4018.847006651885
https://www.pedrogranado.com.br/comprar/maringa/apartamento/flat/zona-01/92123;Pedro Granado Imóveis;Zona 01;580000.0;Flat;Maringá;PR;92123.0;Apartamento;35.0;-23.4209995;-51.9330558;1.0;1.0;;2025-04-15;2025-08-07;True;114.0;16571.428571428572
https://www.pedrogranado.com.br/comprar/maringa/apartamento/lancamentos/zona-03/65063;Pedro Granado Imóveis;Zona 03;580000.0;Lançamentos;Maringá;PR;65063.0;Apartamento;83.0;-23.4286668;-51.9208604;3.0;2.0;1.0;2025-04-15;2025-08-07;True;114.0;6987.951807228916
https://www.pedrogranado.com.br/comprar/maringa/terreno/padrao/zona-02/52073;Pedro Granado Imóveis;Zona 02;580000.0;Padrão;Maringá;PR;52073.0;Terreno;300.02;-23.4357065;-51.93540549999999;;;;2025-04-15;;False;;1933.2044530364644
https://www.pedrogranado.com.br/comprar/maringa/comercial/salao/parque-palmeiras/4265;Pedro Granado Imóveis;Parque Palmeiras;590000.0;Salão;Maringá;PR;4265.0;Comercial;80.0;-23.3847766;-51.93902409999998;;2.0;;2025-04-15;;False;;7375.0
https://www.pedrogranado.com.br/comprar/maringa/apartamento/padrao/zona-01/8597;Pedro Granado Imóveis;Zona 01;590000.0;Padrão;Maringá;PR;8597.0;Apartamento;84.17;-23.4188129;-51.9404687;3.0;2.0;1.0;2025-04-15;;False;;7009.623381252228
https://www.pedrogranado.com.br/comprar/maringa/apartamento/padrao/zona-01/52202;Pedro Granado Imóveis;Zona 01;590000.0;Padrão;Maringá;PR;52202.0;Apartamento;84.17;-23.4188129;-51.9404687;3.0;2.0;1.0;2025-04-15;2025-08-07;True;114.0;7009.623381252228
https://www.pedrogranado.com.br/comprar/maringa/apartamento/padrao/novo-centro/40913;Pedro Granado Imóveis;Novo Centro;590000.0;Padrão;Maringá;PR;40913.0;Apartamento;95.29;-23.4180012;-51.93598530000001;3.0;2.0;1.0;2025-04-15;2025-08-07;True;114.0;6191.625564067583
https://www.pedrogranado.com.br/comprar/maringa/casasobrado/casa/jardim-dias-ii/48623;Pedro Granado Imóveis;Jardim Dias Ii;590000.0;Casa;Maringá;PR;48623.0;Casa;139.57;-23.3727866;-51.9244366;3.0;2.0;1.0;2025-04-15;2025-08-07;True;114.0;4227.269470516587
https://www.pedrogranado.com.br/alugar/maringa/apartamento/padrao/jardim-aclimacao/61433;Pedro Granado Imóveis;Jardim Aclimacao;;Padrão;Maringá;PR;61433.0;Apartamento;68.0;-23.44316782830515;-51.91651760040072;3.0;2.0;1.0;2025-04-15;;False;;
https://www.pedrogranado.com.br/comprar/maringa/apartamento/duplex/zona-07/15743;Pedro Granado Imóveis;Zona 07;595000.0;Duplex;Maringá;PR;15743.0;Apartamento;108.87;-23.4160508;-51.9499661;3.0;3.0;1.0;2025-04-15;;False;;5465.2337650408745
https://www.pedrogranado.com.br/comprar/maringa/apartamento/padrao/zona-01/19853;Pedro Granado Imóveis;Zona 01;595000.0;Padrão;Maringá;PR;19853.0;Apartamento;153.2;-23.42213558802221;-51.93386998650817;4.0;3.0;1.0;2025-04-15;;False;;3883.8120104438644
https://www.pedrogranado.com.br/comprar/maringa/casasobrado/casa/jardim-europa/93992;Pedro Granado Imóveis;Jardim Europa;597500.0;Casa;Maringá;PR;93992.0;Casa;179.24;-23.4484372;-51.8998512;3.0;3.0;1.0;2025-04-15;2025-08-07;True;114.0;3333.5193037268464
https://www.pedrogranado.com.br/comprar/maringa/rural/chacara/area-rural-de-maringa/09203;Pedro Granado Imóveis;Área Rural De Maringá;600000.0;Chácara;Maringá;PR;9203.0;Fazenda;20500.0;-23.36172307572163;-51.84602692292787;;;;2025-04-15;2025-08-07;True;114.0;29.26829268292683
https://www.pedrogranado.com.br/comprar/maringa/apartamento/padrao/zona-07/21653;Pedro Granado Imóveis;Zona 07;600000.0;Padrão;Maringá;PR;21653.0;Apartamento;;-23.4082781;-51.9472217;4.0;4.0;3.0;2025-04-15;;False;;
https://www.pedrogranado.com.br/comprar/maringa/apartamento/padrao/zona-01/90311;Pedro Granado Imóveis;Zona 01;630000.0;Padrão;Maringá;PR;90311.0;Apartamento;76.38;-23.4175238;-51.94136500000002;3.0;2.0;2.0;2025-04-15;;False;;8248.232521602515
https://www.pedrogranado.com.br/comprar/maringa/casasobrado/casa/zona-07/87113;Pedro Granado Imóveis;Zona 07;630000.0;Casa;Maringá;PR;87113.0;Casa;303.8;-23.4177671;-51.9526075;3.0;2.0;1.0;2025-04-15;;False;;2073.732718894009
https://www.pedrogranado.com.br/comprar/maringa/casasobrado/casa/jardim-pilar/39413;Pedro Granado Imóveis;Jardim Pilar;635000.0;Casa;Maringá;PR;39413.0;Casa;136.0;-23.3763439;-51.9646563;3.0;3.0;1.0;2025-04-15;;False;;4669.117647058823
https://www.pedrogranado.com.br/comprar/maringa/terreno/comercial/distrito-de-iguatemi-iguatemi/93263;Pedro Granado Imóveis;Distrito De Iguatemi (Iguatemi);635000.0;Comercial;Maringá;PR;93263.0;Terreno;600.0;-23.36955490519926;-52.06625408280334;;;;2025-04-15;;False;;1058.3333333333333
https://www.pedrogranado.com.br/comprar/maringa/casasobrado/casa/bom-jardim/32492;Pedro Granado Imóveis;Bom Jardim;640000.0;Casa;Maringá;PR;32492.0;Casa;200.0;-23.4115666;-51.8848672;3.0;2.0;1.0;2025-04-15;;False;;3200.0
https://www.pedrogranado.com.br/comprar/maringa/casasobrado/casa/bom-jardim/53003;Pedro Granado Imóveis;Bom Jardim;640000.0;Casa;Maringá;PR;53003.0;Casa;115.2;-23.4115666;-51.8848672;3.0;2.0;1.0;2025-04-15;;False;;5555.555555555556
https://www.pedrogranado.com.br/comprar/maringa/apartamento/padrao/zona-08/04103;Pedro Granado Imóveis;Zona 08;;Padrão;Maringá;PR;4103.0;Apartamento;79.41;-23.4298252;-51.9158678;3.0;2.0;1.0;2025-04-15;2025-08-07;True;114.0;
https://www.pedrogranado.com.br/comprar/maringa/casasobrado/casa/zona-28/92513;Pedro Granado Imóveis;Zona 28;640000.0;Casa;Maringá;PR;92513.0;Casa;113.0;-23.4554167;-51.9168974;3.0;1.0;1.0;2025-04-15;;False;;5663.716814159292
https://www.pedrogranado.com.br/comprar/maringa/casasobrado/casa/jardim-paris-ii/93143;Pedro Granado Imóveis;Jardim Paris Ii;640000.0;Casa;Maringá;PR;93143.0;Casa;143.78;-23.3858182344618;-51.94937535092622;3.0;3.0;1.0;2025-04-15;;False;;4451.244957574071
https://www.pedrogranado.com.br/comprar/maringa/casasobrado/casa/parque-industrial/22253;Pedro Granado Imóveis;Parque Industrial;640000.0;Casa;Maringá;PR;22253.0;Casa;200.77;-23.4466271;-51.9720272;3.0;2.0;1.0;2025-04-15;2025-08-07;True;114.0;3187.727250087164
https://www.pedrogranado.com.br/comprar/maringa/apartamento/padrao/zona-07/86963;Pedro Granado Imóveis;Zona 07;645000.0;Padrão;Maringá;PR;86963.0;Apartamento;110.0;-23.411128;-51.93127579999999;3.0;4.0;1.0;2025-04-15;;False;;5863.636363636364
https://www.pedrogranado.com.br/comprar/maringa/casasobrado/sobrado/jardim-imperial/99032;Pedro Granado Imóveis;Jardim Imperial;650000.0;Sobrado;Maringá;PR;99032.0;Casa;148.06;-23.3933206;-51.9316271;3.0;3.0;1.0;2025-04-15;;False;;4390.1121167094425
https://www.pedrogranado.com.br/comprar/maringa/casasobrado/casa/parque-residencial-patricia/35882;Pedro Granado Imóveis;Parque Residencial Patrícia;650000.0;Casa;Maringá;PR;35882.0;Casa;147.0;-23.41006589677564;-51.90406433862305;3.0;2.0;1.0;2025-04-15;;False;;4421.768707482993
https://www.pedrogranado.com.br/comprar/maringa/comercial/sala/conjunto-habitacional-joao-de-barro-thais/81392;Pedro Granado Imóveis;Conjunto Habitacional João De Barro Thaís;650000.0;Sala;Maringá;PR;81392.0;Comercial;65.0;-23.3980304;-51.9770967;;2.0;;2025-04-15;;False;;10000.0
https://www.pedrogranado.com.br/comprar/maringa/casasobrado/sobrado/jardim-guairaca/01613;Pedro Granado Imóveis;Jardim Guairacá;650000.0;Sobrado;Maringá;PR;1613.0;Casa;150.0;-23.3848631;-51.9706641;6.0;4.0;1.0;2025-04-15;;False;;4333.333333333333
https://www.pedrogranado.com.br/comprar/maringa/terreno/padrao/jardim-italia-ii/47243;Pedro Granado Imóveis;Jardim Itália Ii;650000.0;Padrão;Maringá;PR;47243.0;Terreno;508.1;-23.45409927276935;-51.94583050185242;;;;2025-04-15;;False;;1279.2757331234009
https://www.pedrogranado.com.br/comprar/maringa/casasobrado/casa/vila-morangueira/80153;Pedro Granado Imóveis;Vila Morangueira;650000.0;Casa;Maringá;PR;80153.0;Casa;632.0;-23.4169729;-51.9134379;3.0;3.0;1.0;2025-04-15;;False;;1028.4810126582279
https://www.pedrogranado.com.br/comprar/maringa/casasobrado/casa/jardim-ipanema/61463;Pedro Granado Imóveis;Jardim Ipanema;650000.0;Casa;Maringá;PR;61463.0;Casa;188.16;-23.4555175;-51.9266804;3.0;3.0;1.0;2025-04-15;;False;;3454.5068027210887
https://www.pedrogranado.com.br/comprar/maringa/apartamento/padrao/jardim-novo-horizonte/72122;Pedro Granado Imóveis;Jardim Novo Horizonte;660000.0;Padrão;Maringá;PR;72122.0;Apartamento;68.73;-25.4315538;-49.2927134;3.0;2.0;1.0;2025-04-15;2025-08-07;True;114.0;9602.793539938892
https://www.pedrogranado.com.br/comprar/maringa/casasobrado/casa/jardim-dias-i/88253;Pedro Granado Imóveis;Jardim Dias I;660000.0;Casa;Maringá;PR;88253.0;Casa;150.0;-23.37642811246146;-51.92459572963868;3.0;2.0;1.0;2025-04-15;;False;;4400.0
https://www.pedrogranado.com.br/comprar/maringa/casasobrado/casa/vila-morangueira/48953;Pedro Granado Imóveis;Vila Morangueira;660000.0;Casa;Maringá;PR;48953.0;Casa;489.0;-23.4185444;-51.9046033;3.0;3.0;1.0;2025-04-15;2025-08-07;True;114.0;1349.6932515337423
https://www.pedrogranado.com.br/comprar/maringa/casasobrado/casa/jardim-pinheiros/91463;Pedro Granado Imóveis;Jardim Pinheiros;665000.0;Casa;Maringá;PR;91463.0;Casa;300.0;-23.410606;-51.8988034;3.0;3.0;1.0;2025-04-15;;False;;2216.6666666666665
https://www.pedrogranado.com.br/comprar/maringa/casasobrado/casa/vila-morangueira/71492;Pedro Granado Imóveis;Vila Morangueira;670000.0;Casa;Maringá;PR;71492.0;Casa;360.0;-23.4090295;-51.91332;5.0;4.0;2.0;2025-04-15;2025-08-07;True;114.0;1861.111111111111
https://www.pedrogranado.com.br/comprar/maringa/apartamento/padrao/zona-01/85712;Pedro Granado Imóveis;Zona 01;671000.0;Padrão;Maringá;PR;85712.0;Apartamento;119.15;-23.4240571;-51.9426816;3.0;3.0;3.0;2025-04-15;2025-08-07;True;114.0;5631.556861099454
https://www.pedrogranado.com.br/comprar/maringa/terreno/padrao/vila-santo-antonio/74153;Pedro Granado Imóveis;Vila Santo Antônio;675000.0;Padrão;Maringá;PR;74153.0;Terreno;641.25;-23.405722;-51.9265893;;;;2025-04-15;;False;;1052.6315789473683
https://www.pedrogranado.com.br/comprar/maringa/apartamento/padrao/jardim-santa-rita/24173;Pedro Granado Imóveis;Jardim Santa Rita;679000.0;Padrão;Maringá;PR;24173.0;Apartamento;87.42;-23.4374814;-51.9137179;3.0;2.0;1.0;2025-04-15;2025-08-07;True;114.0;7767.101349805536
https://www.pedrogranado.com.br/comprar/maringa/casasobrado/sobrado/jardim-santa-alice/16913;Pedro Granado Imóveis;Jardim Santa Alice;680000.0;Sobrado;Maringá;PR;16913.0;Casa;150.0;-23.4092776;-51.9022017;3.0;4.0;1.0;2025-04-15;;False;;4533.333333333333
https://www.pedrogranado.com.br/comprar/maringa/casasobrado/casa/jardim-pinheiros/02753;Pedro Granado Imóveis;Jardim Pinheiros;680000.0;Casa;Maringá;PR;2753.0;Casa;303.0;-23.4087695;-51.89820899999999;4.0;3.0;2.0;2025-04-15;;False;;2244.2244224422443
https://www.pedrogranado.com.br/comprar/maringa/casasobrado/casa/vila-morangueira/45953;Pedro Granado Imóveis;Vila Morangueira;680000.0;Casa;Maringá;PR;45953.0;Casa;240.5;-23.41825;-51.9103005;3.0;3.0;1.0;2025-04-15;2025-08-07;True;114.0;2827.4428274428274
https://www.pedrogranado.com.br/comprar/maringa/apartamento/padrao/zona-01/18971;Pedro Granado Imóveis;Zona 01;680675.0;Padrão;Maringá;PR;18971.0;Apartamento;79.23;-23.4231875;-51.9416069;2.0;2.0;1.0;2025-04-15;;False;;8591.127098321342
https://www.pedrogranado.com.br/comprar/maringa/apartamento/padrao/zona-07/75752;Pedro Granado Imóveis;Zona 07;685000.0;Padrão;Maringá;PR;75752.0;Apartamento;79.78;-23.4173544;-51.9286733;3.0;2.0;1.0;2025-04-15;;False;;8586.111807470545
https://www.pedrogranado.com.br/comprar/maringa/casasobrado/condominio-fechado/recanto-dos-magnatas/91943;Pedro Granado Imóveis;Recanto Dos Magnatas;685000.0;Condomínio Fechado;Maringá;PR;91943.0;Casa;204.25;-23.4495861;-51.9424746;3.0;2.0;;2025-04-15;2025-08-07;True;114.0;3353.733170134639
https://www.pedrogranado.com.br/comprar/maringa/apartamento/padrao/novo-centro/9167;Pedro Granado Imóveis;Novo Centro;690000.0;Padrão;Maringá;PR;9167.0;Apartamento;81.26;-23.4169265;-51.94213279999997;3.0;2.0;1.0;2025-04-15;;False;;8491.262613832143
https://www.pedrogranado.com.br/comprar/maringa/apartamento/padrao/zona-08/72653;Pedro Granado Imóveis;Zona 08;690000.0;Padrão;Maringá;PR;72653.0;Apartamento;45.0;-23.4350438;-51.9109403;1.0;2.0;1.0;2025-04-15;2025-08-07;True;114.0;15333.333333333334
https://www.pedrogranado.com.br/comprar/maringa/terreno/comercial/vila-vardelina/71753;Pedro Granado Imóveis;Vila Vardelina;690000.0;Comercial;Maringá;PR;71753.0;Terreno;407.69;-23.3940586;-51.9562244;;;;2025-04-15;2025-08-07;True;114.0;1692.462410164586
https://www.pedrogranado.com.br/comprar/maringa/apartamento/padrao/zona-07/01163;Pedro Granado Imóveis;Zona 07;690000.0;Padrão;Maringá;PR;1163.0;Apartamento;72.61;-23.41805;-51.92798529999999;2.0;2.0;1.0;2025-04-15;;False;;9502.823302575403
https://www.pedrogranado.com.br/comprar/maringa/apartamento/padrao/centro/9176;Pedro Granado Imóveis;Centro;695000.0;Padrão;Maringá;PR;9176.0;Apartamento;138.42;-23.424175;-51.94642999999996;3.0;3.0;1.0;2025-04-15;2025-08-07;True;114.0;5020.950729663344
https://www.pedrogranado.com.br/comprar/maringa/casasobrado/sobrado/zona-03/53681;Pedro Granado Imóveis;Zona 03;695000.0;Sobrado;Maringá;PR;53681.0;Casa;163.0;-23.4292256;-51.9248601;3.0;4.0;3.0;2025-04-15;;False;;4263.803680981595
https://www.pedrogranado.com.br/comprar/maringa/apartamento/padrao/chacara-paulista/54533;Pedro Granado Imóveis;Chácara Paulista;695000.0;Padrão;Maringá;PR;54533.0;Apartamento;79.99;-23.44178807775923;-51.93029899685499;3.0;2.0;1.0;2025-04-15;2025-08-07;True;114.0;8688.586073259157
https://www.pedrogranado.com.br/comprar/maringa/apartamento/padrao/zona-03/54353;Pedro Granado Imóveis;Zona 03;699000.0;Padrão;Maringá;PR;54353.0;Apartamento;82.63;-23.4274018;-51.9247554;3.0;2.0;1.0;2025-04-15;2025-08-07;True;114.0;8459.397313324458
https://www.pedrogranado.com.br/comprar/maringa/casasobrado/casa/bom-jardim/29663;Pedro Granado Imóveis;Bom Jardim;699000.0;Casa;Maringá;PR;29663.0;Casa;200.0;-23.41116886390736;-51.88163677895965;3.0;2.0;1.0;2025-04-15;;False;;3495.0
https://www.pedrogranado.com.br/comprar/maringa/terreno/comercial/portal-das-torres/67772;Pedro Granado Imóveis;Portal Das Torres;700000.0;Comercial;Maringá;PR;67772.0;Terreno;929.4;-23.36842610556397;-51.92895669444275;;;;2025-04-15;;False;;753.1740908112761
https://www.pedrogranado.com.br/comprar/maringa/comercial/sala-edcond/zona-01/43892;Pedro Granado Imóveis;Zona 01;700000.0;Sala Edcond;Maringá;PR;43892.0;Comercial;86.6;-23.4200642;-51.94395889999998;;1.0;;2025-04-15;;False;;8083.140877598153
https://www.pedrogranado.com.br/comprar/maringa/casasobrado/casa/jardim-alvorada/65663;Pedro Granado Imóveis;Jardim Alvorada;700000.0;Casa;Maringá;PR;65663.0;Casa;140.11;-23.3926727;-51.9206466;3.0;2.0;1.0;2025-04-15;;False;;4996.074512882735
https://www.pedrogranado.com.br/comprar/maringa/casasobrado/casa/jardim-espanha/33353;Pedro Granado Imóveis;Jardim Espanha;710000.0;Casa;Maringá;PR;33353.0;Casa;200.0;-23.4597683;-51.9675356;3.0;2.0;1.0;2025-04-15;;False;;3550.0
https://www.pedrogranado.com.br/comprar/maringa/casasobrado/casa/jardim-espanha/63353;Pedro Granado Imóveis;Jardim Espanha;710000.0;Casa;Maringá;PR;63353.0;Casa;200.0;-23.4597683;-51.9675356;3.0;2.0;1.0;2025-04-15;;False;;3550.0
https://www.pedrogranado.com.br/comprar/maringa/terreno/condominio/jardins-de-monet-residence/68153;Pedro Granado Imóveis;Jardins De Monet Residence;717000.0;Condomínio;Maringá;PR;68153.0;Terreno;724.14;-23.3605074;-52.0084744;;;;2025-04-15;;False;;990.1400281713481
https://www.pedrogranado.com.br/comprar/maringa/casasobrado/casa/vila-morangueira/59513;Pedro Granado Imóveis;Vila Morangueira;720000.0;Casa;Maringá;PR;59513.0;Casa;270.0;-23.4114227;-51.91342479999999;3.0;2.0;1.0;2025-04-15;;False;;2666.6666666666665
https://www.pedrogranado.com.br/comprar/maringa/apartamento/padrao/novo-centro/4079;Pedro Granado Imóveis;Novo Centro;730000.0;Padrão;Maringá;PR;4079.0;Apartamento;97.51;-23.4178838;-51.9356727;3.0;2.0;1.0;2025-04-15;;False;;7486.4116500871705
https://www.pedrogranado.com.br/comprar/maringa/apartamento/padrao/zona-7/11213;Pedro Granado Imóveis;Zona 7;730000.0;Padrão;Maringá;PR;11213.0;Apartamento;70.73;-23.4179614;-51.9340031;2.0;2.0;1.0;2025-04-15;2025-08-07;True;114.0;10320.938781280927
https://www.pedrogranado.com.br/comprar/maringa/apartamento/padrao/chacara-paulista/20063;Pedro Granado Imóveis;Chácara Paulista;730000.0;Padrão;Maringá;PR;20063.0;Apartamento;79.99;-23.44178807775923;-51.93029899685499;3.0;2.0;1.0;2025-04-15;2025-08-07;True;114.0;9126.14076759595
https://www.pedrogranado.com.br/comprar/maringa/apartamento/padrao/zona-03/52313;Pedro Granado Imóveis;Zona 03;731097.35;Padrão;Maringá;PR;52313.0;Apartamento;79.3;-23.429882;-51.920402;3.0;2.0;1.0;2025-04-15;;False;;9219.386506935687
https://www.pedrogranado.com.br/comprar/maringa/casasobrado/casa/parque-das-bandeiras/61073;Pedro Granado Imóveis;Parque Das Bandeiras;735000.0;Casa;Maringá;PR;61073.0;Casa;360.0;-23.3859045;-51.9323503;4.0;4.0;2.0;2025-04-15;2025-08-07;True;114.0;2041.6666666666667
https://www.pedrogranado.com.br/comprar/maringa/casasobrado/sobrado/zona-07/46013;Pedro Granado Imóveis;Zona 07;745000.0;Sobrado;Maringá;PR;46013.0;Casa;135.45;-23.4164904;-51.9228673;3.0;4.0;1.0;2025-04-15;2025-08-07;True;114.0;5500.184569952013
https://www.pedrogranado.com.br/comprar/maringa/casasobrado/sobrado/jardim-paris-iii/98381;Pedro Granado Imóveis;Jardim Paris Iii;750000.0;Sobrado;Maringá;PR;98381.0;Casa;212.88;-23.3858946;-51.9591976;4.0;3.0;3.0;2025-04-15;2025-08-07;True;114.0;3523.1116121758737
https://www.pedrogranado.com.br/comprar/maringa/apartamento/padrao/zona-01/70481;Pedro Granado Imóveis;Zona 01;750000.0;Padrão;Maringá;PR;70481.0;Apartamento;120.81;-23.4238993;-51.9357521;3.0;3.0;1.0;2025-04-15;2025-08-07;True;114.0;6208.095356344674
https://www.pedrogranado.com.br/comprar/maringa/apartamento/padrao/zona-07/27332;Pedro Granado Imóveis;Zona 07;750000.0;Padrão;Maringá;PR;27332.0;Apartamento;144.21;-23.417541;-51.94453520000002;4.0;3.0;1.0;2025-04-15;;False;;5200.748907842729
https://www.pedrogranado.com.br/comprar/maringa/apartamento/padrao/zona-01/42092;Pedro Granado Imóveis;Zona 01;750000.0;Padrão;Maringá;PR;42092.0;Apartamento;110.03;-23.4186801;-51.9414878;3.0;2.0;1.0;2025-04-15;;False;;6816.322821048805
https://www.pedrogranado.com.br/comprar/maringa/apartamento/padrao/zona-08/34643;Pedro Granado Imóveis;Zona 08;750000.0;Padrão;Maringá;PR;34643.0;Apartamento;77.27;-23.4445729;-51.913275;2.0;2.0;1.0;2025-04-15;;False;;9706.22492558561
https://www.pedrogranado.com.br/comprar/maringa/apartamento/padrao/zona-08/21263;Pedro Granado Imóveis;Zona 08;750000.0;Padrão;Maringá;PR;21263.0;Apartamento;79.41;-23.429862;-51.9158559;3.0;2.0;1.0;2025-04-15;;False;;9444.654325651682
https://www.pedrogranado.com.br/comprar/maringa/apartamento/padrao/chacara-paulista/48863;Pedro Granado Imóveis;Chácara Paulista;750000.0;Padrão;Maringá;PR;48863.0;Apartamento;124.1;-23.4406235;-51.9313791;3.0;3.0;1.0;2025-04-15;;False;;6043.513295729251
https://www.pedrogranado.com.br/comprar/maringa/apartamento/padrao/zona-01/99143;Pedro Granado Imóveis;Zona 01;751318.94;Padrão;Maringá;PR;99143.0;Apartamento;79.83;-23.42355527657741;-51.94145564113923;2.0;2.0;1.0;2025-04-15;2025-08-07;True;114.0;9411.486158085932
https://www.pedrogranado.com.br/comprar/maringa/casasobrado/sobrado/zona-20/48713;Pedro Granado Imóveis;Zona 20;755000.0;Sobrado;Maringá;PR;48713.0;Casa;173.32;-23.4390315;-51.9576887;3.0;3.0;1.0;2025-04-15;;False;;4356.104315716594
https://www.pedrogranado.com.br/comprar/maringa/apartamento/padrao/zona-07/39203;Pedro Granado Imóveis;Zona 07;760000.0;Padrão;Maringá;PR;39203.0;Apartamento;112.44;-23.4140105;-51.93421260000002;3.0;3.0;1.0;2025-04-15;;False;;6759.160441124155
https://www.pedrogranado.com.br/comprar/maringa/apartamento/padrao/zona-01/09743;Pedro Granado Imóveis;Zona 01;766226.11;Padrão;Maringá;PR;9743.0;Apartamento;57.0;-23.42295894032863;-51.93463727909851;2.0;2.0;1.0;2025-04-15;;False;;13442.563333333334
https://www.pedrogranado.com.br/comprar/maringa/apartamento/padrao/zona-01/20081;Pedro Granado Imóveis;Zona 01;776376.74;Padrão;Maringá;PR;20081.0;Apartamento;79.83;-23.4231875;-51.9416069;2.0;1.0;1.0;2025-04-15;;False;;9725.375673305774
https://www.pedrogranado.com.br/comprar/maringa/apartamento/padrao/zona-07/4094;Pedro Granado Imóveis;Zona 07;780000.0;Padrão;Maringá;PR;4094.0;Apartamento;73.0;-23.41805;-51.92798529999999;2.0;2.0;1.0;2025-04-15;2025-08-07;True;114.0;10684.931506849314
https://www.pedrogranado.com.br/comprar/maringa/apartamento/padrao/zona-07/93341;Pedro Granado Imóveis;Zona 07;780000.0;Padrão;Maringá;PR;93341.0;Apartamento;105.88;-23.4148591;-51.93418299999996;3.0;2.0;1.0;2025-04-15;;False;;7366.830374008312
https://www.pedrogranado.com.br/comprar/maringa/casasobrado/casa/jardim-munique/17552;Pedro Granado Imóveis;Jardim Munique;780000.0;Casa;Maringá;PR;17552.0;Casa;144.81;-23.37140470194664;-51.95997097725668;3.0;3.0;1.0;2025-04-15;2025-08-07;True;114.0;5386.368344727574
https://www.pedrogranado.com.br/comprar/maringa/casasobrado/casa/vila-marumby/11723;Pedro Granado Imóveis;Vila Marumby;780000.0;Casa;Maringá;PR;11723.0;Casa;626.04;-23.4457432;-51.9256356;4.0;3.0;1.0;2025-04-15;2025-08-07;True;114.0;1245.9267778416715
https://www.pedrogranado.com.br/comprar/maringa/apartamento/padrao/zona-08/60302;Pedro Granado Imóveis;Zona 08;781132.55;Padrão;Maringá;PR;60302.0;Apartamento;79.0;-23.4298252;-51.9158678;3.0;2.0;1.0;2025-04-15;;False;;9887.753797468355
https://www.pedrogranado.com.br/comprar/maringa/casasobrado/casa/vila-santa-izabel/61613;Pedro Granado Imóveis;Vila Santa Izabel;790000.0;Casa;Maringá;PR;61613.0;Casa;307.81;-23.4061083;-51.9639073;3.0;3.0;1.0;2025-04-15;;False;;2566.518306747669
https://www.pedrogranado.com.br/comprar/maringa/apartamento/padrao/zona-07/26813;Pedro Granado Imóveis;Zona 07;790000.0;Padrão;Maringá;PR;26813.0;Apartamento;82.0;-23.4195602;-51.92817669999999;3.0;1.0;1.0;2025-04-15;;False;;9634.146341463415
https://www.pedrogranado.com.br/comprar/maringa/casasobrado/sobrado/jardim-iguacu/56363;Pedro Granado Imóveis;Jardim Iguaçu;;Sobrado;Maringá;PR;56363.0;Casa;232.5;-23.447824;-51.958255;3.0;5.0;3.0;2025-04-15;;False;;
https://www.pedrogranado.com.br/comprar/maringa/apartamento/padrao/zona-07/62963;Pedro Granado Imóveis;Zona 07;790000.0;Padrão;Maringá;PR;62963.0;Apartamento;82.28;-23.4194172;-51.9283758;3.0;2.0;1.0;2025-04-15;;False;;9601.361205639281
https://www.pedrogranado.com.br/comprar/maringa/apartamento/padrao/conjunto-residencial-cidade-alta/98342;Pedro Granado Imóveis;Conjunto Residencial Cidade Alta;793266.0;Padrão;Maringá;PR;98342.0;Apartamento;79.46;-23.4499161;-51.91542640000001;3.0;2.0;1.0;2025-04-15;2025-08-07;True;114.0;9983.211678832118
https://www.pedrogranado.com.br/comprar/maringa/predio/inteiro/jardim-alvorada/42863;Pedro Granado Imóveis;Jardim Alvorada;800000.0;Inteiro;Maringá;PR;42863.0;Apartamento;216.3;-23.4066793;-51.91583989999999;2.0;3.0;;2025-04-15;;False;;3698.5668053629215
https://www.pedrogranado.com.br/comprar/maringa/comercial/barracao/jardim-paris-iii/69863;Pedro Granado Imóveis;Jardim Paris Iii;800000.0;Barracão;Maringá;PR;69863.0;Comercial;301.55;-23.3841769;-51.96332210000001;;2.0;;2025-04-15;;False;;2652.959708174432
https://www.pedrogranado.com.br/comprar/maringa/comercial/casa-comercial/chacara-paulista/03173;Pedro Granado Imóveis;Chácara Paulista;800000.0;Casa Comercial;Maringá;PR;3173.0;Comercial;175.65;-24.68695241199914;-52.470703125;;3.0;;2025-04-15;;False;;4554.511813265016
https://www.pedrogranado.com.br/comprar/maringa/apartamento/padrao/zona-01/49712;Pedro Granado Imóveis;Zona 01;804140.67;Padrão;Maringá;PR;49712.0;Apartamento;119.15;-23.4240571;-51.9426816;3.0;3.0;3.0;2025-04-15;;False;;6748.977507343684
https://www.pedrogranado.com.br/comprar/maringa/casasobrado/sobrado/jardim-cerro-azul/326;Pedro Granado Imóveis;Jardim Cerro Azul;810000.0;Sobrado;Maringá;PR;326.0;Casa;180.24;-23.440879;-51.936444;3.0;3.0;1.0;2025-04-15;2025-08-07;True;114.0;4494.007989347537
https://www.pedrogranado.com.br/comprar/maringa/apartamento/padrao/zona-01/55733;Pedro Granado Imóveis;Zona 01;810000.0;Padrão;Maringá;PR;55733.0;Apartamento;134.31;-23.42414496349933;-51.94662380978696;3.0;4.0;1.0;2025-04-15;2025-08-07;True;114.0;6030.824212642395
https://www.pedrogranado.com.br/comprar/maringa/apartamento/padrao/zona-01/98081;Pedro Granado Imóveis;Zona 01;825101.99;Padrão;Maringá;PR;98081.0;Apartamento;79.91;-23.4231875;-51.9416069;2.0;2.0;1.0;2025-04-15;;False;;10325.390939807283
https://www.pedrogranado.com.br/comprar/maringa/casasobrado/sobrado/jardim-italia/28892;Pedro Granado Imóveis;Jardim Italia;830000.0;Sobrado;Maringá;PR;28892.0;Casa;193.53;-23.4531458;-51.9501892;3.0;3.0;1.0;2025-04-15;2025-08-07;True;114.0;4288.740763705885
https://www.pedrogranado.com.br/comprar/maringa/casasobrado/sobrado/loteamento-batel/29063;Pedro Granado Imóveis;Loteamento Batel;830000.0;Sobrado;Maringá;PR;29063.0;Casa;220.82;-23.4059277;-51.90708670000001;5.0;5.0;3.0;2025-04-15;2025-08-07;True;114.0;3758.7175074721495
https://www.pedrogranado.com.br/comprar/maringa/casasobrado/casa/jardim-monte-rei/31763;Pedro Granado Imóveis;Jardim Monte Rei;830000.0;Casa;Maringá;PR;31763.0;Casa;211.05;-23.3788394;-51.9550084;3.0;3.0;1.0;2025-04-15;;False;;3932.717365553186
https://www.pedrogranado.com.br/comprar/maringa/casasobrado/casa/jd.-novo-horizonte/7064;Pedro Granado Imóveis;Jd. Novo Horizonte;835000.0;Casa;Maringá;PR;7064.0;Casa;318.0;-23.4428344;-51.93183429999999;3.0;2.0;1.0;2025-04-15;2025-08-07;True;114.0;2625.7861635220124
https://www.pedrogranado.com.br/comprar/maringa/apartamento/padrao/centro/5255;Pedro Granado Imóveis;Centro;835000.0;Padrão;Maringá;PR;5255.0;Apartamento;129.0;-23.4178997;-51.94177239999999;3.0;3.0;2.0;2025-04-15;2025-08-07;True;114.0;6472.868217054263
https://www.pedrogranado.com.br/comprar/maringa/apartamento/padrao/zona-01/42812;Pedro Granado Imóveis;Zona 01;849269.91;Padrão;Maringá;PR;42812.0;Apartamento;119.15;-23.4240571;-51.9426816;3.0;3.0;3.0;2025-04-15;;False;;7127.737389844733
https://www.pedrogranado.com.br/comprar/maringa/casasobrado/casa/jardim-america/51251;Pedro Granado Imóveis;Jardim América;850000.0;Casa;Maringá;PR;51251.0;Casa;300.0;-23.4218667;-51.8961438;4.0;3.0;1.0;2025-04-15;;False;;2833.3333333333335
https://www.pedrogranado.com.br/comprar/maringa/apartamento/padrao/vila-bosque/57452;Pedro Granado Imóveis;Vila Bosque;850000.0;Padrão;Maringá;PR;57452.0;Apartamento;85.0;-23.4356915;-51.9267377;3.0;2.0;1.0;2025-04-15;;False;;10000.0
https://www.pedrogranado.com.br/comprar/maringa/apartamento/padrao/zona-08/32213;Pedro Granado Imóveis;Zona 08;850000.0;Padrão;Maringá;PR;32213.0;Apartamento;77.27;-23.4445775;-51.9134167;2.0;2.0;2.0;2025-04-15;2025-08-07;True;114.0;11000.388248997024
https://www.pedrogranado.com.br/comprar/maringa/casasobrado/sobrado/zona-07/21443;Pedro Granado Imóveis;Zona 07;850000.0;Sobrado;Maringá;PR;21443.0;Casa;510.0;-23.412207;-51.925389;4.0;4.0;1.0;2025-04-15;2025-08-07;True;114.0;1666.6666666666667
https://www.pedrogranado.com.br/comprar/maringa/casasobrado/casa/jardim-novo-oasis/02843;Pedro Granado Imóveis;Jardim Novo Oásis;850000.0;Casa;Maringá;PR;2843.0;Casa;360.0;-23.4056098;-51.8947595;3.0;3.0;1.0;2025-04-15;2025-08-07;True;114.0;2361.1111111111113
https://www.pedrogranado.com.br/comprar/maringa/casasobrado/casa/bom-jardim/51563;Pedro Granado Imóveis;Bom Jardim;850000.0;Casa;Maringá;PR;51563.0;Casa;201.0;-23.4112568;-51.8862664;3.0;3.0;1.0;2025-04-15;;False;;4228.855721393034
https://www.pedrogranado.com.br/comprar/maringa/terreno/padrao/vila-santo-antonio/93863;Pedro Granado Imóveis;Vila Santo Antônio;850000.0;Padrão;Maringá;PR;93863.0;Terreno;1083.0;-23.4075223;-51.9264069;;;;2025-04-15;;False;;784.8568790397045
https://www.pedrogranado.com.br/comprar/maringa/apartamento/padrao/zona-08/90953;Pedro Granado Imóveis;Zona 08;880000.0;Padrão;Maringá;PR;90953.0;Apartamento;85.06;-23.4350438;-51.9109403;3.0;2.0;1.0;2025-04-15;;False;;10345.638372913238
https://www.pedrogranado.com.br/comprar/maringa/casasobrado/casa/jardim-italia/18542;Pedro Granado Imóveis;Jardim Italia;890000.0;Casa;Maringá;PR;18542.0;Casa;134.49;-23.4518108;-51.9517815;3.0;4.0;1.0;2025-04-15;2025-08-07;True;114.0;6617.592386051007
https://www.pedrogranado.com.br/alugar/maringa/casasobrado/casa/zona-07/23333;Pedro Granado Imóveis;Zona 07;;Casa;Maringá;PR;23333.0;Casa;446.77;-23.40785452395405;-51.94343712259202;2.0;3.0;1.0;2025-04-15;2025-08-07;True;114.0;
https://www.pedrogranado.com.br/comprar/maringa/casasobrado/casa/jardim-munique/33833;Pedro Granado Imóveis;Jardim Munique;890000.0;Casa;Maringá;PR;33833.0;Casa;143.78;-23.3745498;-51.96292469999999;3.0;4.0;3.0;2025-04-15;;False;;6190.012519126443
https://www.pedrogranado.com.br/comprar/maringa/apartamento/padrao/zona-08/25853;Pedro Granado Imóveis;Zona 08;890000.0;Padrão;Maringá;PR;25853.0;Apartamento;76.8;-23.4445775;-51.9134167;2.0;2.0;1.0;2025-04-15;;False;;11588.541666666668
https://www.pedrogranado.com.br/comprar/maringa/casasobrado/casa/bom-jardim/85463;Pedro Granado Imóveis;Bom Jardim;890000.0;Casa;Maringá;PR;85463.0;Casa;139.3;-23.4104361;-51.8910576;3.0;3.0;1.0;2025-04-15;;False;;6389.088298636037
https://www.pedrogranado.com.br/comprar/maringa/casasobrado/casa/bom-jardim/88463;Pedro Granado Imóveis;Bom Jardim;890000.0;Casa;Maringá;PR;88463.0;Casa;139.3;-23.4104645;-51.8910979;3.0;3.0;1.0;2025-04-15;;False;;6389.088298636037
https://www.pedrogranado.com.br/comprar/maringa/apartamento/padrao/zona-03/12173;Pedro Granado Imóveis;Zona 03;895000.0;Padrão;Maringá;PR;12173.0;Apartamento;78.53;-23.4246071;-51.9242289;2.0;2.0;1.0;2025-04-15;2025-08-07;True;114.0;11396.918375143257
https://www.pedrogranado.com.br/comprar/maringa/casasobrado/condominio-fechado/jardim-guapore/6146;Pedro Granado Imóveis;Jardim Guaporé;898000.0;Condomínio Fechado;Maringá;PR;6146.0;Casa;268.99;-23.4416267;-51.95563240000001;3.0;2.0;1.0;2025-04-15;;False;;3338.414067437451
https://www.pedrogranado.com.br/comprar/maringa/apartamento/padrao/zona-01/8837;Pedro Granado Imóveis;Zona 01;900000.0;Padrão;Maringá;PR;8837.0;Apartamento;128.33;-23.4178997;-51.94177239999999;3.0;4.0;2.0;2025-04-15;;False;;7013.1691732252775
https://www.pedrogranado.com.br/comprar/maringa/comercial/barracao/jardim-olimpico/53981;Pedro Granado Imóveis;Jardim Olímpico;900000.0;Barracão;Maringá;PR;53981.0;Comercial;259.2;-23.4117214;-51.9817596;;2.0;;2025-04-15;;False;;3472.222222222222
https://www.pedrogranado.com.br/comprar/maringa/casasobrado/casa/jardim-oriental/83312;Pedro Granado Imóveis;Jardim Oriental;900000.0;Casa;Maringá;PR;83312.0;Casa;135.06;-23.36955859483555;-51.94286201852415;3.0;4.0;3.0;2025-04-15;2025-08-07;True;114.0;6663.705019991115
https://www.pedrogranado.com.br/comprar/maringa/casasobrado/casa/conjunto-habitacional-inocente-vila-nova-junior/16073;Pedro Granado Imóveis;Conjunto Habitacional Inocente Vila Nova Júnior;900000.0;Casa;Maringá;PR;16073.0;Casa;232.0;-23.4500491;-51.9553849;4.0;3.0;2.0;2025-04-15;;False;;3879.310344827586
https://www.pedrogranado.com.br/comprar/maringa/apartamento/padrao/zona-08/26453;Pedro Granado Imóveis;Zona 08;909900.0;Padrão;Maringá;PR;26453.0;Apartamento;83.0;;;3.0;2.0;1.0;2025-04-15;;False;;10962.650602409638
https://www.pedrogranado.com.br/comprar/maringa/apartamento/padrao/zona-03/44411;Pedro Granado Imóveis;Zona 03;910000.0;Padrão;Maringá;PR;44411.0;Apartamento;101.0;-23.423458;-51.92588000000001;3.0;2.0;1.0;2025-04-15;2025-08-07;True;114.0;9009.90099009901
https://www.pedrogranado.com.br/comprar/maringa/casasobrado/casa/parque-residencial-cidade-nova/52463;Pedro Granado Imóveis;Parque Residencial Cidade Nova;930000.0;Casa;Maringá;PR;52463.0;Casa;360.18;-23.3950898;-51.9316271;4.0;3.0;1.0;2025-04-15;;False;;2582.0423121772446
https://www.pedrogranado.com.br/comprar/maringa/apartamento/padrao/zona-03/36662;Pedro Granado Imóveis;Zona 03;930992.79;Padrão;Maringá;PR;36662.0;Apartamento;179.94;-23.42464205417671;-51.92674724439696;4.0;4.0;2.0;2025-04-15;2025-08-07;True;114.0;5173.906802267423
https://www.pedrogranado.com.br/comprar/maringa/apartamento/padrao/zona-01/24812;Pedro Granado Imóveis;Zona 01;937356.26;Padrão;Maringá;PR;24812.0;Apartamento;119.15;-23.4240571;-51.9426816;3.0;3.0;3.0;2025-04-15;;False;;7867.026940830885
https://www.pedrogranado.com.br/comprar/maringa/casasobrado/sobrado/jd.-novo-horizonte/1814;Pedro Granado Imóveis;Jd. Novo Horizonte;950000.0;Sobrado;Maringá;PR;1814.0;Casa;195.0;-23.444091;-51.93732299999999;3.0;3.0;1.0;2025-04-15;;False;;4871.794871794872
https://www.pedrogranado.com.br/comprar/maringa/apartamento/padrao/vila-santo-antonio/28352;Pedro Granado Imóveis;Vila Santo Antônio;950000.0;Padrão;Maringá;PR;28352.0;Apartamento;81.0;-23.4167038;-51.9307099;3.0;2.0;1.0;2025-04-15;;False;;11728.395061728395
https://www.pedrogranado.com.br/comprar/maringa/apartamento/padrao/zona-01/44513;Pedro Granado Imóveis;Zona 01;950000.0;Padrão;Maringá;PR;44513.0;Apartamento;80.0;-23.42355527657741;-51.94145564113923;2.0;3.0;2.0;2025-04-15;;False;;11875.0
https://www.pedrogranado.com.br/comprar/maringa/casasobrado/casa/zona-05/84833;Pedro Granado Imóveis;Zona 05;950000.0;Casa;Maringá;PR;84833.0;Casa;534.0;-23.4335421;-51.96048469999999;4.0;4.0;2.0;2025-04-15;;False;;1779.0262172284645
https://www.pedrogranado.com.br/comprar/maringa/apartamento/padrao/zona-01/43043;Pedro Granado Imóveis;Zona 01;950000.0;Padrão;Maringá;PR;43043.0;Apartamento;205.75;-23.4240549;-51.9415038;4.0;5.0;2.0;2025-04-15;2025-08-07;True;114.0;4617.2539489671935
https://www.pedrogranado.com.br/comprar/maringa/casasobrado/casa/vila-santo-antonio/55643;Pedro Granado Imóveis;Vila Santo Antônio;950000.0;Casa;Maringá;PR;55643.0;Casa;370.02;-23.4060952;-51.9266648;3.0;3.0;1.0;2025-04-15;;False;;2567.428787633101
https://www.pedrogranado.com.br/comprar/maringa/casasobrado/casa/parque-da-gavea/0521;Pedro Granado Imóveis;Parque Da Gávea;970000.0;Casa;Maringá;PR;521.0;Casa;120.0;-23.452595;-51.919104;3.0;2.0;1.0;2025-04-15;;False;;8083.333333333333
https://www.pedrogranado.com.br/comprar/maringa/apartamento/padrao/zona-01/0758;Pedro Granado Imóveis;Zona 01;980000.0;Padrão;Maringá;PR;758.0;Apartamento;182.95;-23.423415;-51.93839000000003;4.0;2.0;1.0;2025-04-15;2025-08-07;True;114.0;5356.654823722329
https://www.pedrogranado.com.br/comprar/maringa/apartamento/padrao/zona-01/10412;Pedro Granado Imóveis;Zona 01;980000.0;Padrão;Maringá;PR;10412.0;Apartamento;129.0;-23.4187241;-51.9345519;3.0;4.0;2.0;2025-04-15;;False;;7596.899224806201
https://www.pedrogranado.com.br/comprar/maringa/casasobrado/sobrado/jardim-novo-horizonte/2009;Pedro Granado Imóveis;Jardim Novo Horizonte;990000.0;Sobrado;Maringá;PR;2009.0;Casa;344.5;-23.4429263;-51.93568849999997;3.0;4.0;;2025-04-15;2025-08-07;True;114.0;2873.7300435413645
https://www.pedrogranado.com.br/comprar/maringa/terreno/padrao/zona-07/65363;Pedro Granado Imóveis;Zona 07;990000.0;Padrão;Maringá;PR;65363.0;Terreno;600.0;-23.4102345;-51.94166130000001;;;;2025-04-15;;False;;1650.0
https://www.pedrogranado.com.br/comprar/maringa/apartamento/padrao/zona-01/50081;Pedro Granado Imóveis;Zona 01;992000.0;Padrão;Maringá;PR;50081.0;Apartamento;119.98;-23.4231875;-51.9416069;3.0;4.0;3.0;2025-04-15;;False;;8268.044674112352
https://www.pedrogranado.com.br/comprar/maringa/apartamento/padrao/zona-01/39263;Pedro Granado Imóveis;Zona 01;995000.0;Padrão;Maringá;PR;39263.0;Apartamento;97.72;;;3.0;2.0;1.0;2025-04-15;2025-08-07;True;114.0;10182.153090462547
https://www.pedrogranado.com.br/comprar/maringa/apartamento/padrao/jardim-tabaete/66533;Pedro Granado Imóveis;Jardim Tabaete;998000.0;Padrão;Maringá;PR;66533.0;Apartamento;114.91;;;3.0;4.0;3.0;2025-04-15;2025-08-07;True;114.0;8685.0578713776
https://www.pedrogranado.com.br/comprar/maringa/predio/inteiro/jardim-alvorada/21563;Pedro Granado Imóveis;Jardim Alvorada;1000000.0;Inteiro;Maringá;PR;21563.0;Apartamento;162.09;-23.40299;-51.916206;;;;2025-04-15;;False;;6169.412055031155
https://www.pedrogranado.com.br/comprar/maringa/rural/chacara/jardim-sao-domingos/54563;Pedro Granado Imóveis;Jardim São Domingos;1000000.0;Chácara;Maringá;PR;54563.0;Fazenda;3270.0;-23.385837;-52.02963200000001;2.0;;;2025-04-15;;False;;305.8103975535168
https://www.pedrogranado.com.br/comprar/maringa/apartamento/padrao/zona-01/63263;Pedro Granado Imóveis;Zona 01;1050000.0;Padrão;Maringá;PR;63263.0;Apartamento;232.53;-23.4225377;-51.93380539999998;4.0;3.0;2.0;2025-04-15;;False;;4515.546381112114
https://www.pedrogranado.com.br/comprar/maringa/apartamento/padrao/zona-03/83963;Pedro Granado Imóveis;Zona 03;1070000.0;Padrão;Maringá;PR;83963.0;Apartamento;97.0;-23.42849;-51.924983;3.0;3.0;1.0;2025-04-15;;False;;11030.927835051547
https://www.pedrogranado.com.br/comprar/maringa/apartamento/padrao/zona-03/62411;Pedro Granado Imóveis;Zona 03;1085000.0;Padrão;Maringá;PR;62411.0;Apartamento;101.0;-23.423458;-51.92588000000001;3.0;2.0;1.0;2025-04-15;;False;;10742.574257425742
https://www.pedrogranado.com.br/comprar/maringa/apartamento/padrao/zona-03/40511;Pedro Granado Imóveis;Zona 03;1090000.0;Padrão;Maringá;PR;40511.0;Apartamento;101.0;-23.423458;-51.92588000000001;3.0;2.0;1.0;2025-04-15;;False;;10792.079207920791
https://www.pedrogranado.com.br/comprar/maringa/casasobrado/casa/vila-santo-antonio/40013;Pedro Granado Imóveis;Vila Santo Antônio;1090000.0;Casa;Maringá;PR;40013.0;Casa;1083.0;-23.4079108;-51.9261271;5.0;3.0;1.0;2025-04-15;;False;;1006.4635272391505
https://www.pedrogranado.com.br/comprar/maringa/casasobrado/casa/zona-08/43853;Pedro Granado Imóveis;Zona 08;1090000.0;Casa;Maringá;PR;43853.0;Casa;341.99;-23.4348012;-51.9088124;3.0;4.0;2.0;2025-04-15;;False;;3187.2276967162784
https://www.pedrogranado.com.br/comprar/maringa/apartamento/padrao/zona-08/29342;Pedro Granado Imóveis;Zona 08;1095000.0;Padrão;Maringá;PR;29342.0;Apartamento;66.53;-23.449748;-51.9153077;2.0;2.0;1.0;2025-04-15;;False;;16458.740417856607
https://www.pedrogranado.com.br/comprar/maringa/casasobrado/sobrado/jardim-santa-rosa/15113;Pedro Granado Imóveis;Jardim Santa Rosa;1100000.0;Sobrado;Maringá;PR;15113.0;Casa;393.76;-23.4543322;-51.9581611;4.0;6.0;3.0;2025-04-15;;False;;2793.579845591223
https://www.pedrogranado.com.br/comprar/maringa/apartamento/padrao/zona-03/79163;Pedro Granado Imóveis;Zona 03;1101030.0;Padrão;Maringá;PR;79163.0;Apartamento;107.0;-23.428145;-51.923171;3.0;2.0;1.0;2025-04-15;;False;;10290.0
https://www.pedrogranado.com.br/alugar/maringa/apartamento/padrao/zona-07/81011;Pedro Granado Imóveis;Zona 07;;Padrão;Maringá;PR;81011.0;Apartamento;115.09;-23.4147779;-51.93587000000002;3.0;2.0;1.0;2025-04-15;;False;;
https://www.pedrogranado.com.br/comprar/maringa/apartamento/padrao/zona-03/84353;Pedro Granado Imóveis;Zona 03;1130000.0;Padrão;Maringá;PR;84353.0;Apartamento;99.85;-23.4289141;-51.9238693;3.0;2.0;2.0;2025-04-15;2025-08-07;True;114.0;11316.975463194793
https://www.pedrogranado.com.br/comprar/maringa/apartamento/padrao/zona-08/37772;Pedro Granado Imóveis;Zona 08;1150000.0;Padrão;Maringá;PR;37772.0;Apartamento;105.0;-23.4487191;-51.914649;3.0;2.0;1.0;2025-04-15;;False;;10952.380952380952
https://www.pedrogranado.com.br/comprar/maringa/apartamento/padrao/zona-01/99992;Pedro Granado Imóveis;Zona 01;1150000.0;Padrão;Maringá;PR;99992.0;Apartamento;207.11;-23.4245032;-51.93372999999997;2.0;4.0;1.0;2025-04-15;;False;;5552.604895949013
https://www.pedrogranado.com.br/comprar/maringa/apartamento/padrao/zona-03/75053;Pedro Granado Imóveis;Zona 03;1150000.0;Padrão;Maringá;PR;75053.0;Apartamento;99.85;-23.4289141;-51.9238693;3.0;2.0;1.0;2025-04-15;;False;;11517.275913870806
https://www.pedrogranado.com.br/comprar/maringa/apartamento/padrao/zona-03/05582;Pedro Granado Imóveis;Zona 03;1155000.0;Padrão;Maringá;PR;5582.0;Apartamento;96.84;-23.42849;-51.924983;3.0;3.0;2.0;2025-04-15;;False;;11926.889714993804
https://www.pedrogranado.com.br/alugar/maringa/terreno/comercial/jardim-aclimacao/20501;Pedro Granado Imóveis;Jardim Aclimacao;;Comercial;Maringá;PR;20501.0;Terreno;360.0;-23.4451503;-51.91769239999996;;;;2025-04-15;;False;;
https://www.pedrogranado.com.br/comprar/maringa/terreno/padrao/zona-08/70643;Pedro Granado Imóveis;Zona 08;1190000.0;Padrão;Maringá;PR;70643.0;Terreno;449.65;-23.4423399;-51.9126072;;;;2025-04-15;;False;;2646.5028355387526
